index,Site Type,Name,Total PFAS,sample Type,Latitude,Longitude,distancetoirport,distancetolandfil,distancetochemfactory,distancetofirefighting,distancetowaterways
0,Drinking Water >,KANNAPOLIS  CITY OF  KANNAPOLIS LAKE,10.1,Lake,38.62497103,-97.98929619,469.99122826279256,1305.1358328162644,980.4555710062291,980.4555710062291,1466.2643280598513
1,Drinking Water >,Selma,36.0,Drinking Water,32.4073589,-87.0211007,426.2511929318984,417.8025977267779,410.2582857452152,410.2582857452152,651.0047904360297
2,Drinking Water >,Brookwoodwater ,21.0,Drinking Water,33.8836398,-84.0400713,147.29877072543442,129.50476174820008,136.83608154855182,136.83608154855182,339.5013126136305
3,Drinking Water <,MURPHY  TOWN OF  : HIWASSEE RIVER,0.0,River,35.06000888,-83.94045258,17.19998538461505,13.636758966198585,8.341159903115171,8.341159903115171,244.7076675748092
4,Drinking Water <,LAKE SANTEETLAH  TOWN OF: WELL #4,0.0,Well,35.3637753,-83.86715248,18.222551642779788,7.232329810018986,18.5493614901662,18.5493614901662,222.35243950390876
5,Drinking Water <,ROBBINSVILLE  TOWN OF: LONG CREEK,0.0,Drinking Water,35.32472236,-83.81080503,14.570005060514786,1.1464107981554832,14.152820892867396,14.152820892867396,219.7493664253975
6,Drinking Water <,TOWN OF FONTANA DAM  FONTANA LAKE,0.0,Lake,35.45447625,-83.79636939,28.879272278501546,2.7468204765870166,28.624033566827705,28.624033566827705,212.2571076799896
7,Drinking Water <,CARTOOGECHAYE RIVER,0.0,River,35.1580789,-83.44419609,38.0770488196587,7.589274300493631,0.6356295484043096,0.6356295484043096,201.29443138977103
8,Drinking Water <,WHITTIER SANITARY DISTRICT  WELL #2,6.2,Well,35.43551041,-83.35905409,52.455449716098734,10.665486970477223,9.404269012079519,9.404269012079519,177.90562231264806
9,Drinking Water <,TUCKASEIGEE WATER & SEWER AUTH  TUCKASEGEE RIVER,1.2,River,35.38135074,-83.26715922,57.46117175710634,1.1178952920430147,2.832438195002077,2.832438195002077,173.93522174663718
10,Drinking Water <,WESTERN CAROLINA UNIV WTP: TUCKASEIGEE RIVER,0.0,River,35.31459947,-83.17308902,48.636059774501774,1.3513316445169286,7.829190532956065,7.829190532956065,171.14895850751267
11,PFASNetwork >,FAYETTEVILLE PUBLIC WORKS COMM: GLENVILLE LAKE,70.0,Lake,35.17363819,-83.15176776,47.70672996633352,16.96692436932732,19.56851257011746,19.56851257011746,179.44521501124518
12,PFASNetwork >,City of CANTON : Piegeon River ,0.0,River,35.82634982,-83.14060534,69.22308023965408,21.93756124885209,34.58176819681538,34.58176819681538,141.9244322635717
13,Drinking Water <,Tuckaseigee   NC,7.1,Drinking Water,35.2703778,-83.1226416,43.81600533568569,8.065821297845227,14.462659688045921,14.462659688045921,170.52398028428226
14,Drinking Water <,MAGGIE VALLEY SANITARY DIST  : JONATHANS CREEK,0.0,Drinking Water,35.5191832,-83.10172189,50.19303368578856,12.985751404333127,10.085556089856635,10.085556089856635,153.1029959042642
15,Drinking Water <,MAGGIE VALLEY SANITARY DIST  :CAMBELL'S CREEK,0.0,Drinking Water,35.51495076,-83.09888125,49.72008223162594,12.67347100974109,9.630167455547387,9.630167455547387,153.12651378486947
16,Drinking Water <,WAYNESVILLE  TOWN OF  ALLENS CREEK RESERVOIR,0.0,Drinking Water,35.4249267,-83.00871264,37.617553958424885,9.750917883562408,5.3975929713288915,5.3975929713288915,151.87474823100374
17,UCMR 4,CANTON  TOWN OF,79.0,Drinking Water,35.3989096,-82.8640623,24.871152214457968,14.452332757061157,14.975085069824415,14.975085069824415,143.32173875904482
18,Drinking Water <,Hot Springs  NC,0.0,Drinking Water,35.89208407,-82.82284158,56.39042721006895,12.499130795232919,14.898168412283344,14.898168412283344,112.4620677210029
19,Drinking Water <,Rosman  NC,7.1,Drinking Water,35.143721,-82.8212432,21.640727233330377,1.7182924057763973,36.69367646697241,36.69367646697241,160.40967273223177
20,UCMR 4,BREVARD  CITY OF,15.0,Drinking Water,35.2190534,-82.7778579,13.741295153696246,7.565110085054693,29.302669589207202,29.302669589207202,151.53940347848567
21,Drinking Water <,Brevard  NC,13.0,Drinking Water,35.2334472,-82.7342919,9.477870607624663,4.821282450738207,25.0342684628994,25.0342684628994,147.70157098952285
22,PFASNetwork >,City of BREVARD,7.1,Drinking Water,35.24617331,-82.72748296,8.37341598597133,3.491703172376225,23.942102286391055,23.942102286391055,146.23419294471321
23,Drinking Water <,MARSHALL  TOWN OF  : WELL #8,12.0,Well,35.85638354,-82.67097412,47.788298834343585,6.214305938229361,3.7360003806015554,3.7360003806015554,101.1930263837061
24,Drinking Water <,MARSHALL  TOWN OF  : WELL #10,0.0,Well,35.86172883,-82.6615004,48.16198164586908,6.609596604269494,4.566237039120919,4.566237039120919,100.17184309835413
25,Drinking Water <,WEAVERVILLE  TOWN OF  IVY RIVER,0.0,River,35.69242711,-82.58213317,28.326146970290242,3.99086106658051,0.9860912315911232,0.9860912315911232,103.18528400240272
26,PFASNetwork >,CITY OF ASHEVILLE : MILLS RIVER,12.0,River,35.39134129,-82.56846252,5.993940979870324,6.742395430580156,3.676147421336074,3.676147421336074,124.58421233331183
27,Drinking Water <,City of Asheville  NC,1.7,Drinking Water,35.5950581,-82.5514869,17.272989152981385,8.43377242906324,3.1492974807070575,3.1492974807070575,107.63152243694302
28,Drinking Water <,Mars Hill  NC,2.7,Drinking Water,35.8264981,-82.5492999,42.98484549896126,9.53448267092739,11.847967580059114,11.847967580059114,92.81024900821927
29,UCMR 4,WEAVERVILLE  TOWN OF,79.0,Drinking Water,35.705887,-82.5402275,29.56529262054157,7.4695754014120155,2.899630481330694,2.899630481330694,99.231068643223
30,Drinking Water <,WOODFIN SANITARY WATER AND SEWER: SUGAR FORK,0.0,Drinking Water,35.63577742,-82.50794628,21.961807455455975,8.75775769704112,7.485177348830419,7.485177348830419,101.70150574987836
31,Drinking Water <,MARS HILL  TOWN OF  : CARTER COVE RESERVOIR,1.2,Drinking Water,35.93713921,-82.49781848,50.17053767032759,20.327304531917836,12.693397485983887,12.693397485983887,83.31837950988185
32,Drinking Water <,MARS HILL  TOWN OF  : LAUREL CREEK RESERVIOR,0.0,Drinking Water,35.94254078,-82.49404241,50.16463679811631,20.999580926050605,12.496774536786322,12.496774536786322,82.7755772363871
33,Drinking Water >,Greenville,23.0,Drinking Water,34.8526176,-82.3940104,50.96392924683242,41.82119367184223,47.236288451198725,47.236288451198725,161.7418381496041
34,PFASNetwork >,ASHEVILLE CITY OF: NORTH FORK RESERVOIR,0.0,Drinking Water,35.66398343,-82.34506127,30.51736658689067,9.039018572336566,5.082459447756214,5.082459447756214,88.68817287026067
35,PFASNetwork >,TOWN OF BLACK MOUNTAIN ,3.5,Drinking Water,35.62182757,-82.32631818,27.976201461463184,5.683466780142451,0.9552709372673719,0.9552709372673719,90.87689882585921
36,Drinking Water <,Black Mountain  NC,3.5,Drinking Water,35.6178951,-82.3212302,27.985957770753785,5.1960383300966315,0.8739858499534285,0.8739858499534285,90.88889462885815
37,Drinking Water <,MONTREAT WATER SYSTEM: WELL #1,0.0,Well,35.64802256,-82.30310977,27.65637324335827,4.983455475971878,2.858058603453718,2.858058603453718,87.31478922458182
38,Drinking Water <,TRYON  TOWN OF  BIG FALLS CREEK,0.0,Drinking Water,35.19710792,-82.23534011,21.67958836282295,2.1171612154500976,18.193281953224254,18.193281953224254,125.89363871833451
39,Drinking Water >,LAKE LURE TOWN OF,0.0,Lake,35.42330362,-82.19531334,23.145431262287232,11.495472340392025,22.203684796616976,22.203684796616976,101.84831764860145
40,Drinking Water <,Old Fort  NC  NC,4.6,Drinking Water,35.6290093,-82.1806697,18.439926067331587,5.513760069855821,12.015870651316519,12.015870651316519,81.87124158171693
41,PFASNetwork >,Town of OLD FORT,4.6,Drinking Water,35.62870993,-82.17932403,18.35683695877187,5.392743885202647,11.926752370843179,11.926752370843179,81.82604471701191
42,UCMR 4,OLD FORT  TOWN OF,158.0,Drinking Water,35.61724,-82.1713632,18.521450525618107,4.8737806965733625,12.029033916532978,12.029033916532978,82.4393761040311
43,Drinking Water <,Bakersville  NC,4.2,Drinking Water,36.0156735,-82.1587351,28.250453558423324,9.629599427994007,13.038806548104295,13.038806548104295,51.90192887455399
44,Drinking Water <,MARION  CITY OF: MACKEY CREEK,0.0,Drinking Water,35.66852279,-82.12740676,12.048987819155993,4.372270596035496,5.847612931863341,5.847612931863341,75.49022732810018
45,UCMR 4,TRYON  TOWN OF,79.0,Drinking Water,35.2542295,-82.116955,25.290560849915327,9.377819960925441,18.374970135491278,18.374970135491278,115.78798733372648
46,Drinking Water <,MARION  CITY OF: CLEAR CREEK,6.2,Drinking Water,35.7024815,-82.09589692,7.996261775441457,8.372157470340962,3.596800562409178,3.596800562409178,70.76378675484878
47,UCMR 4,SPRUCE PINE  TOWN OF,158.0,Drinking Water,35.9154579,-82.0645536,22.28360209841173,7.311750426717713,2.373633998290628,2.373633998290628,51.097408045407334
48,Drinking Water <,town of elk park nc,0.0,Drinking Water,36.15875105,-81.98337449,7.4863523995737395,22.046903813889053,29.062243695279438,29.062243695279438,31.6041957677767
49,PFASNetwork >,TOWN OF BANNER ELK,0.0,Drinking Water,36.16128439,-81.86740912,2.929329262247849,21.788937815356938,34.20419597711584,34.20419597711584,21.479535948938306
50,Drinking Water <,Seven Devils  NC,9.8,Drinking Water,36.1443203,-81.826041,6.865459214973981,19.066877943276275,35.10335292751775,35.10335292751775,18.76207269347491
51,PFASNetwork >,TOWN OF SEVEN DEVILS,11.79,Drinking Water,36.14735658,-81.79658436,9.390794445679127,16.57843985049816,35.954915674784374,35.954915674784374,16.277002934876084
52,UCMR 4,BROAD RIVER WATER AUTHORITY,79.0,River,35.2294387,-81.7458845,13.677007161132577,3.0532306756373564,1.9386495452549022,1.9386495452549022,91.79433106611704
53,UCMR 4,BLOWING ROCK  TOWN OF,79.0,Drinking Water,36.1379754,-81.7021049,17.93664496581042,11.011778939642127,30.803654573160404,30.803654573160404,10.779144955226036
54,UCMR 4,BRENTWOOD-JAMESTOWN ROAD,79.0,Drinking Water,35.7446871,-81.6851617,3.5691518412584773,3.199602660032682,1.973172430392599,1.973172430392599,53.099132259608226
55,Drinking Water <,City of Morganton  NC,13.0,Drinking Water,35.7454071,-81.6848188,3.5792709278134116,3.117490767000012,1.9229734596559687,1.9229734596559687,53.01693730864653
56,Drinking Water <,APPALACHIAN STATE UNIV WTP: NORRIS BRANCH,0.0,Drinking Water,36.21354546,-81.6840214,20.27685358952075,4.365245812371911,25.158143885582163,25.158143885582163,4.057085188940371
57,PFASNetwork >,BLOWING ROCK  NC,0.0,Drinking Water,36.13310168,-81.66815453,21.031422176557193,10.245882124551704,29.186025887334456,29.186025887334456,10.080507957927258
58,PFASNetwork >,CLAY CO WATER & SEWER DISTRICT: WELL #5,0.0,Well,29.87233622,-81.6176172,560.4412731871854,540.595719894684,561.8378083632206,561.8378083632206,562.4928618434236
59,Drinking Water <,Cleveland County NC  NC,3.0,Drinking Water,35.361354,-81.6035062,11.274540248490874,4.96632631567557,3.8651611106182426,3.8651611106182426,75.72920604229539
60,PFASNetwork >,SHELBY  CITY OF: FIRST BROAD RIVER,0.0,River,35.29715344,-81.57088088,4.904518415093122,6.602381455163456,1.3819267777988224,1.3819267777988224,74.41414802925544
61,Drinking Water <,Valdese  NC,2.2,Drinking Water,35.7406864,-81.563149,7.928678890287866,8.966272842622597,0.6084981184568561,0.6084981184568561,53.828720907331764
62,Drinking Water <,VALDESE  TOWN OF  LAKE RHODHISS,2.2,Lake,35.77729672,-81.55784501,6.683737801468948,8.201555289964036,1.3258911448071755,1.3258911448071755,49.86203837846694
63,Drinking Water >,Lansing  NC,0.0,Drinking Water,36.50121272,-81.50776592,11.149002179446699,12.591353859479094,2.488526403833279,2.488526403833279,3.594812144546621
64,Drinking Water <,Beaver Creek  NC,0.0,Drinking Water,36.37782926,-81.50155509,9.323400416847464,19.689727053237974,0.7553863513871588,0.7553863513871588,7.494649640104311
65,Drinking Water <,WEST JEFFERSON  TOWN OF: WELL #3A-WEST SEVENTH ST,7.84,Well,36.40874627,-81.4966521,7.254408329459161,16.795772438369447,2.711003995657635,2.711003995657635,4.383169436500867
66,Drinking Water >,LAKE RHODHISS  Lenoir  NC ,0.0,Lake,35.78453882,-81.49398742,10.609516397295433,4.940419623583337,5.918495973756752,5.918495973756752,50.24969068728681
67,Drinking Water <,West Jefferson  NC,7.8,Drinking Water,36.4037364,-81.4928829,7.145629611326629,16.976208541701233,2.2330327784015886,2.2330327784015886,5.033246351003405
68,Drinking Water <,GRANITE FALLS  TOWN OF  LAKE RHODHISS,2.64,Lake,35.78562054,-81.43469531,6.480461271996817,2.6688836329747905,6.882786076319576,6.882786076319576,49.37790412362758
69,UCMR 4,BATON WATER CORPORATION,79.0,Drinking Water,35.8151974,-81.4169093,8.706821911027518,6.324463698474894,5.423015754487629,5.423015754487629,45.72367503765875
70,Drinking Water >,City of Cherryville,607.0,Drinking Water,35.38102512,-81.38095355,22.844911372757,5.137507687385598,4.810066192598152,4.810066192598152,55.48629145033923
71,Drinking Water <,CATAWBA RIV/LAKE HICKORY,2.39,Lake,35.75759611,-81.37245902,2.5167597703809155,3.4620160486578193,1.5186749410611522,1.5186749410611522,44.67434366207569
72,PFASNetwork >,CHERRYVILLE : INDIAN CREEK,6.7,Creek,35.38964347,-81.36320148,20.97302151547768,3.739007375368618,2.9924785983411955,2.9924785983411955,53.72729108758408
73,Drinking Water >,Kings Mountain  NC,2.24,Drinking Water,35.25943833,-81.36128923,20.297400639804653,5.425898456883077,2.630192433790225,2.630192433790225,57.93907398307498
74,Drinking Water <,Kings Mountain  NC,2.3,Drinking Water,35.2451342,-81.3411942,18.078114827162022,4.701631731826154,1.015037835197266,1.015037835197266,56.98432279464384
75,PFASNetwork >,BESSEMER CITY : ARROWWOOD LAKE,0.0,Lake,35.29551828,-81.29949668,17.23677411808815,2.3156183060228237,1.78494058043359,1.78494058043359,51.18632440344338
76,Drinking Water >,Bessemer City,41.0,Drinking Water,35.284782,-81.2839183,15.387765040588583,2.1702185692412437,2.058144687719112,2.058144687719112,50.38070173851509
77,UCMR 4,BESSEMER CITY  CITY OF,222.0,Drinking Water,35.3161558,-81.2739073,17.12874755216455,2.6188125589112454,4.929394456315716,4.929394456315716,48.16553973731537
78,PFASNetwork >,CLEVELAND COUNTY WATER,3.0,Drinking Water,35.39949231,-81.26580671,13.11559096228114,7.459528533827937,3.0924547287963686,3.0924547287963686,44.84831471163424
79,Drinking Water >,City of Lincolnton,21.0,Drinking Water,35.473745,-81.2545251,8.587608239024666,5.1962875798685335,1.6484395226129005,1.6484395226129005,43.01578418552476
80,Drinking Water <,NEWTON  CITY OF  CITY LAKE,19.51,Lake,35.65532425,-81.25105263,9.861524300801682,0.34113682382577565,2.87406738110235,2.87406738110235,35.30891481473058
81,Drinking Water <,City of Newton  NC,7.2,Drinking Water,35.6698552,-81.2214708,12.708652217815926,3.026723268385519,0.8135124742744099,0.8135124742744099,32.285571711152066
82,Drinking Water <,Lincoln County  NC,9.2,Drinking Water,35.4637028,-81.2078164,4.694026973998425,8.972505355231995,1.399611102525601,1.399611102525601,38.80832276240088
83,UCMR 4,DALLAS  TOWN OF,79.0,Drinking Water,35.3532989,-81.1857736,14.280803310545643,3.5308584543782877,5.693122506231974,5.693122506231974,39.22177838292468
84,UCMR,"DALLAS, TOWN OF-DALLAS, TOWN OF",8.0,Drinking Water,35.3532989,-81.1857736,14.280803310545643,3.5308584543782877,5.693122506231974,5.693122506231974,39.22177838292468
85,Drinking Water >,Two Rivers Utilities,1.1,River,35.26566034,-81.18383829,7.92159696468193,6.015922292131999,1.5631706569708412,1.5631706569708412,43.12558307974757
86,Drinking Water <,WILKESBORO  TOWN OF  YADKIN RIVER,0.0,River,36.1444377,-81.17925034,11.008499882646069,3.407352943818261,1.3208933665997904,1.3208933665997904,3.438598088103671
87,Drinking Water <,Gastonia : TWO RIVERS UTILITIES: MTN ISLAND LAKE,1.1,Lake,35.26839219,-81.17782124,8.013668203498156,5.419752643887982,2.15050423197561,2.15050423197561,42.53525349386569
88,Drinking Water <,Dallas  NC,14.0,Drinking Water,35.3165386,-81.1758091,13.168683800320773,3.7321020994990515,2.4183761066745166,2.4183761066745166,40.00632216996972
89,Drinking Water <,NORTH WILKESBORO  TOWN OF  : REDDIES RIVER,0.0,River,36.16223949,-81.15661265,8.189105939602362,6.185316279677969,2.1278225599411558,2.1278225599411558,1.7594163105009422
90,UCMR 4,RANLO  TOWN OF,79.0,Drinking Water,35.2528422,-81.1526976,5.880891435479281,5.889952635323394,3.322865570661534,3.322865570661534,40.633489826636385
91,UCMR 4,BLUE RIDGE WATER ASSOCIATION,158.0,Drinking Water,36.3338025,-81.1306391,12.948891376612927,16.861670387992927,16.244927958762243,16.244927958762243,18.071486540677462
92,Drinking Water <,SPARTA  TOWN OF: WELL #9,0.0,Well,36.50112437,-81.11549088,28.355795698067276,3.154776848635471,5.263394380949646,5.263394380949646,31.020594494547243
93,UCMR 4,LOWELL  CITY OF,79.0,Well,35.265536,-81.1030573,8.44290368565087,5.32768939988355,5.167870034042635,5.167870034042635,35.92860344754661
94,UCMR 4,TOWN OF STANLEY,79.0,Drinking Water,35.3535258,-81.0903175,15.415898091027062,6.329744262600872,0.48732687104161315,0.48732687104161315,31.23334737581031
95,Drinking Water <,STATESVILLE  CITY OF  LOOKOUT SHOALS,11.2,Drinking Water,35.76685719,-81.09011691,12.646457431695788,8.133078425917033,6.7267567967795365,6.7267567967795365,19.285432514777895
96,UCMR 4,MULBERRY-FAIRPLAINS WTR ASSOC,237.0,Drinking Water,36.2013832,-81.0865035,2.398229341031367,4.242955224317864,1.1039128347446947,1.1039128347446947,5.8348720657536965
97,Drinking Water <,City of Belmont  NC,2.4,Drinking Water,35.2438483,-81.0377936,9.647290347667887,4.211090166481476,2.908807069114328,2.908807069114328,30.84452423012747
98,PFASNetwork >,CITY OFLINCOLNTON : S FORK CATAWBA RIVER,21.3,River,35.15158429,-81.03757428,10.992361403887095,3.6385430003523376,4.80884697765717,4.80884697765717,35.471866354065455
99,Drinking Water <,City of Mount Holly  NC,3.3,Drinking Water,35.2956441,-81.0163388,11.778841355435087,1.7650571021587145,0.6935678849009573,0.6935678849009573,27.581190611297142
100,UCMR 4,PINEWOOD ACRES WATER SYSTEM,79.0,Drinking Water,35.6110824,-80.9981576,8.874338377415903,2.705719993056542,1.7160164183302598,1.7160164183302598,18.831744457200536
101,Drinking Water >,LINCOLN COUNTY WTP: LAKE NORMAN,90.2,Lake,35.53161403,-80.9897951,11.913469364096185,7.029432853763055,1.1707783079468015,1.1707783079468015,20.053680353417377
102,Drinking Water <,MOUNTAIN ISLAND LAKE,3.3,Lake,35.33535788,-80.98862486,14.621403639998567,3.542947560870084,1.5649123243045888,1.5649123243045888,24.494720289158955
103,Military Site,Charlotte Douglas International Airport,10100.0,Military Site,35.21643932,-80.95391532,1.4528653846422235,1.0699190451531924,2.4457711329093668,2.4457711329093668,25.171680870131667
104,Drinking Water <,RONDA  TOWN OF: WELL #2,0.0,Well,36.21903454,-80.94278921,6.864994672652663,4.40563333247499,5.204082253069213,5.204082253069213,0.6795111546249711
105,PFASNetwork >,CHARLOTTE WATER : MT ISLAND LAKE/CAT RIVER,6.8,Lake,35.36522247,-80.9390563,14.400405332054268,4.916006195897215,7.082690292791757,7.082690292791757,18.914910680101105
106,PFASNetwork >,CHARLOTTE WATER: LAKE NORMAN,2.7,Lake,35.44596011,-80.90834412,11.444046580311625,4.873558411158216,5.739773209526602,5.739773209526602,12.104988157052674
107,Drinking Water <,MOORESVILLE TOWN OF: LAKE NORMAN,7.4,Lake,35.61660735,-80.89194478,1.0344203673622205,6.8271723264196,6.79026333277994,6.79026333277994,14.801239849485919
108,PFASNetwork >,CATAWBA RIV-LAKE WYLIE,5.44,Lake,34.4683681,-80.88965709,45.381979979955155,57.68574249604669,65.110514198007,65.110514198007,67.57300457126736
109,Drinking Water <,Charlotte Water  NC,6.8,Drinking Water,35.2768287,-80.8893786,8.738046370813828,0.46531643683298407,0.7954244332366962,0.7954244332366962,16.924515933874012
110,Drinking Water <,City of Statesville  NC,20.0,Drinking Water,35.7846006,-80.8883291,5.795497197576077,6.0325085098356785,0.9659977544887318,0.9659977544887318,4.055810272431744
111,UCMR 4,LAMPLIGHTER SOUTH-DANBY,316.0,Drinking Water,35.080412,-80.8875861,15.177154158481217,2.140489877342377,2.485462874211864,2.485462874211864,23.99130668603089
112,Drinking Water <,ELKIN  TOWN OF: BIG ELKIN CREEK,0.0,Drinking Water,36.25670696,-80.86517486,6.320362274997889,6.185619745034629,3.3679388527190155,3.3679388527190155,7.8897929104788185
113,Drinking Water <,Davidson  NC,1.1,Drinking Water,35.4993031,-80.8486846,11.2632114337495,9.232408477341378,3.7399247536057785,3.7399247536057785,6.8264553903327245
114,Drinking Water <,Town of Mooresville  NC,118.0,Drinking Water,35.5820319,-80.8140473,8.370741717610949,13.227984828307395,2.344703485606623,2.344703485606623,12.315924177831848
115,UCMR 4,ELKIN  TOWN OF,79.0,Drinking Water,36.3301314,-80.7990185,5.632632827991443,3.8600439654879795,6.649776905645364,6.649776905645364,2.1928570990430645
116,Drinking Water <,DOBSON  TOWN OF: FISHER RIVER,0.0,River,36.41799291,-80.71739919,15.686308793042505,13.414059717696057,3.0490213961153496,3.0490213961153496,9.158634732066632
117,Drinking Water <,HARRISBURG  TOWN OF: WELL #3,3.9,Well,35.29663586,-80.67166447,10.948434733350984,3.022957469095602,1.880687914114081,1.880687914114081,4.1444020793787795
118,Drinking Water <,Yadkinville  NC,1.1,Drinking Water,36.1345807,-80.6595079,8.733807203354312,5.3619667407191915,18.38709970878739,18.38709970878739,2.6533465910964025
119,Drinking Water <,YADKINVILLE  TOWN OF: SOUTH DEEP CREEK,10.9,Drinking Water,36.10997924,-80.65678613,6.308188864956934,7.930952094230487,15.870310956447202,15.870310956447202,3.7783717617929344
120,Drinking Water <,Harrisburg  NC,3.9,Drinking Water,35.3237528,-80.6559017,8.850528350807505,3.0130023226930813,2.009409048740838,2.009409048740838,1.5788819730709924
121,Drinking Water <,MOUNT AIRY  CITY OF: STEWARTS CREEK,8.9,Drinking Water,36.49437997,-80.65361506,10.02209406264634,5.32193204374899,3.5270384421045575,3.5270384421045575,4.7974219718591575
122,Drinking Water >,City of Kannapolis,10.0,Drinking Water,35.4873613,-80.6217341,13.45907179326338,1.9303794325478818,6.549566031966753,6.549566031966753,14.300266893681615
123,Drinking Water <,MOUNT AIRY  CITY OF: LOVILLS CREEK,0.0,Drinking Water,36.52494366,-80.61622193,9.337710284906402,3.281194375254585,1.7174557513475897,1.7174557513475897,5.204448946993665
124,Drinking Water <,City of Mount Airy  NC,13.0,Drinking Water,36.4999641,-80.6053793,6.653062566442238,0.965854272708493,1.5912205257178655,1.5912205257178655,2.2749988434434476
125,Drinking Water <,City of Mount Airy  NC,13.0,Drinking Water,36.4999641,-80.6053793,6.653062566442238,0.965854272708493,1.5912205257178655,1.5912205257178655,2.2749988434434476
126,UCMR 4,UNION COUNTY WATER SYSTEM,158.0,Drinking Water,35.1019648,-80.5993854,2.179574885939725,10.351849674331486,5.036095059225165,5.036095059225165,1.3731968566384052
127,UCMR 4,MOCKSVILLE  TOWN OF,158.0,Drinking Water,35.9367033,-80.5882803,11.926647648888483,8.863753866320781,5.298362374992568,5.298362374992568,9.986709874913242
128,PFASNetwork >,LAKE CONCORD/COLDWATER CR,27.01,Lake,35.47938955,-80.58611825,14.992176573438284,4.340441726901468,5.790061347276941,5.790061347276941,13.957350645051092
129,Drinking Water >,City of Concord,2.7,Drinking Water,35.4087517,-80.579511,12.009750950720251,3.2330394521987076,3.0852901953638763,3.0852901953638763,6.8166468678503715
130,PFASNetwork >,LAKE FISHER/COLDWATER CRK,3.2,Lake,35.48862263,-80.57648643,16.326719417345597,4.542362293554674,7.055076962816651,7.055076962816651,14.645943768785607
131,Drinking Water <,City of Monroe  NC,24.0,Drinking Water,34.9854275,-80.5495112,7.483232234873857,7.914529636148236,0.8622833079525292,0.8622833079525292,3.6577597413921623
132,Drinking Water <,Union County  NC,906.0,Drinking Water,34.9338651,-80.543845,9.170632274168883,3.2166791439263367,6.1577028518402015,6.1577028518402015,6.944641196359736
133,Military Site,Salisbury AASF #2,2794.0,Military Site,35.64612079,-80.52481028,0.6123571132279931,0.4052446945191089,1.4003528158698484,1.4003528158698484,9.675363754145973
134,Drinking Water <,MOCKSVILLE  TOWN OF: HUNTING CREEK,3.0,Drinking Water,35.93811935,-80.50962818,5.454025381329305,6.552165803170047,5.267374116393586,5.267374116393586,6.385537765131041
135,Drinking Water <,SALISBURY-ROWAN  YADKIN RIVER,4.6,River,35.6976191,-80.49941574,5.611975523202862,5.861248226740883,5.54108315740513,5.54108315740513,5.815622738791783
136,Drinking Water <,MOUNT PLEASANT  TOWN OF (WSACC): DUTCH BUFFALO CREEK,3.6,Drinking Water,35.40544478,-80.48866937,20.134919279617748,7.5476159915900665,8.38339910240816,8.38339910240816,6.095315778373767
137,Drinking Water <,MONROE  CITY OF  : LAKE TWITTY,0.0,Lake,35.03636812,-80.47878249,12.986612706855059,1.452164103695863,5.700558671437856,5.700558671437856,0.8015325491832781
138,Drinking Water <,Pilot Mountain  NC,6.4,Drinking Water,36.38372325,-80.47590188,10.765370227003157,10.17081973166848,11.249155727127214,11.249155727127214,6.148645700977213
139,PFASNetwork >,CITY OF KING PUBLIC UTILITIES: YADKIN RIVER,4.1,River,36.25665736,-80.46659892,23.812167636976767,9.430078894526856,8.140762713414194,8.140762713414194,9.036019576396589
140,Drinking Water <,town of faith nc,2.1,Drinking Water,35.5902236,-80.45971407,8.595034367928022,8.925352403763723,4.534486411881475,4.534486411881475,10.732390766401803
141,Drinking Water <,Wingate  NC,11.0,Drinking Water,34.9843176,-80.4492319,16.052180158584704,5.851003085422724,1.6437037861193704,1.6437037861193704,5.541061319822971
142,UCMR 4,WINGATE  TOWN OF,79.0,Drinking Water,34.9806158,-80.4437781,16.63789878049259,6.371028640436952,2.153593417256067,2.153593417256067,6.089977411022488
143,Drinking Water <,WINSTON-SALEM  CITY OF  YADKIN RIVER (IDOLS DAM),5.2,River,35.97498927,-80.39870136,9.092536960856217,4.0906662138970535,3.961629475973846,3.961629475973846,4.662572675473667
144,UCMR 4,DAVIDSON WATER INC,79.0,Drinking Water,35.9953936,-80.3769999,12.082131947559953,1.1023666334592035,1.3932075644565114,1.3932075644565114,4.028363928963194
145,Drinking Water <,City of King  NC,1.8,Drinking Water,36.2805336,-80.3593684,18.88934541739296,8.03414506354143,3.2027515511291287,3.2027515511291287,18.182280598691836
146,Drinking Water <,OAKBORO  TOWN OF  : WELL #3,0.0,Well,35.23205661,-80.32149162,26.053585663557147,17.29180420829564,1.7057702477748238,1.7057702477748238,5.78406406012494
147,Drinking Water <,City of Lexington  NC,11.0,Drinking Water,35.8240265,-80.2533838,6.452907871796128,2.2196306020598757,5.317511597865251,5.317511597865251,2.5832915062720168
148,Drinking Water <,City of Winston-Salem  NC,72.0,Drinking Water,36.0998596,-80.244216,3.995500964683995,3.0413139407227825,1.9719298770607496,1.9719298770607496,3.1544778877720736
149,UCMR,City of Albemarle-Tuckertown,10.0,Drinking Water,35.3213858,-80.2098219,12.233598942846946,5.576176771216018,4.635695185680541,4.635695185680541,7.4317982122091175
150,Drinking Water <,Danbury  NC,11.0,Drinking Water,36.4093079,-80.2062143,13.155752442518668,6.888635503121929,16.285075768752357,16.285075768752357,30.272203523970944
151,Drinking Water >,City of Albemarle,10.0,Drinking Water,35.3501426,-80.2000578,8.996211267425682,6.683766828298148,1.8906801155879451,1.8906801155879451,8.362231799586604
152,PFASNetwork >,ALBEMARLE  CITY OF: NARROWS RESERVOIR/BADIN L,6.41,Drinking Water,35.37571731,-80.19487547,6.386760657995476,8.810711352053877,2.623926567939718,2.623926567939718,7.461744869663754
153,Drinking Water >,Lake Thom-A-Lex Park  Yokley Road  Lexington  NC,0.0,Lake,35.87854292,-80.18862882,8.907990757474652,4.026120159955251,6.894015335616047,6.894015335616047,2.7572337515856593
154,Drinking Water <,Anson County  NC,8.0,Drinking Water,34.9054732,-80.1875065,16.067086078023966,11.347486539224347,13.770559577666853,13.770559577666853,14.237012601966653
155,PFASNetwork >,WINSTON-SALEM  CITY OF SALEM LAKE,16.21,Lake,36.0986916,-80.1820147,4.87467020669574,1.8262793409992568,1.416176132350742,1.416176132350742,2.935468160063571
156,Military Site,Stanly County Airport,985.0,Military Site,35.41445826,-80.15112157,0.6245387403784223,12.208760462141129,5.522024886692979,5.522024886692979,5.06887678848423
157,Drinking Water <,WALNUT COVE  TOWN OF  WELL #3,0.0,Well,36.29692551,-80.13488887,1.3966980513751286,5.306877279119247,6.981068869857616,6.981068869857616,24.20008376984291
158,Drinking Water >,Norwood  NC,13.0,Drinking Water,35.2195898,-80.1189477,22.46197998635882,4.128441921024164,4.196690161566297,4.196690161566297,5.832380543904292
159,Drinking Water >,Denton  NC,21.0,Drinking Water,35.6334712,-80.1158813,20.49445071659427,19.454866770216174,16.146669869859668,16.146669869859668,2.9520529769038872
160,PFASNetwork >,MONTGOMERY COUNTY : LAKE TILLERY,14.41,Lake,35.27791182,-80.10107249,16.410822962991595,5.040416056222018,7.499934818559636,7.499934818559636,3.896184868635988
161,PFASNetwork >,TOWN OF NORWOOD : LAKE TILLERY,12.91,Lake,35.23085217,-80.09880428,21.539005123694142,4.474523618956549,5.745284292359542,5.745284292359542,4.767646374327648
162,Drinking Water <,THOMASVILLE  CITY OF: TOM-A-LEX LAKE,78.0,Lake,35.8826369,-80.0819879,6.374186788363436,2.546790627118063,0.5538461648637164,0.5538461648637164,4.233760586358458
163,UCMR 4,TOWN OF WADESBORO,158.0,Drinking Water,34.9682097,-80.0767266,5.766533067972058,8.685223539860074,5.714070577838598,5.714070577838598,18.944123171931608
164,UCMR 4,HANDY SANITARY DISTRICT,79.0,Drinking Water,35.6141751,-80.0758425,17.261712788517787,23.593043272586023,18.786832134593322,18.786832134593322,5.841801653029837
165,PFASNetwork >,ANSON COUNTY WATER SYSTEM: PEE DEE RIVER,26.15,River,35.21774606,-80.03637315,22.343519308309276,5.646428677346305,6.739039742324459,6.739039742324459,2.4261685816866687
166,Drinking Water >,City of High Point,66.0,Drinking Water,35.9551294,-80.0020672,16.97419237972206,6.218116775344854,0.8400658666144077,0.8400658666144077,4.721285873876604
167,Drinking Water >,Madison  NC : DAN RIVER,0.0,River,36.37603471,-79.99356453,14.685128852872392,1.5146852874321908,0.2815674924236826,0.2815674924236826,32.704776416595514
168,Drinking Water <,HIGH POINT  CITY OF  OAK HOLLOW LAKE,25.12,Lake,36.01654732,-79.98514869,10.128221902591557,6.752562873136282,4.987109427022695,4.987109427022695,8.047231639742625
169,UCMR 4,JAMESTOWN  TOWN OF,237.0,Drinking Water,35.9623181,-79.9752212,15.633707019091926,3.8927520194084964,0.2743731296335291,0.2743731296335291,2.6513335513043597
170,Drinking Water <,MAYODAN  TOWN OF: MAYO RIVER,7.3,River,36.4123597,-79.9669857,10.908622519233015,3.8298592395116744,1.3973154363309226,1.3973154363309226,32.151792785713305
171,Drinking Water <,HIGH POINT  CITY OF  CITY LAKE,66.26,Lake,35.9963365,-79.94555304,11.537661432624743,4.757345620595133,0.7805079874674584,0.7805079874674584,5.167900988776525
172,PFASNetwork >,COUNTY OFANSON,80.0,Drinking Water,35.00263364,-79.91025091,15.579685716557588,8.068069598524891,6.442761505993915,6.442761505993915,7.2267603046153575
173,PFASNetwork >,CITY OF   ASHEBORO : LAKE BUNCH,15.21,Lake,35.73867724,-79.87132279,10.003673759264451,6.007425107685561,5.806035329202486,5.806035329202486,6.495345857669468
174,PFASNetwork >,CITY OF GREENSBORO  : LAKE BRANDT,65.0,Lake,36.17590827,-79.86411147,5.792081189657077,3.0995354161805135,9.429218041376021,9.429218041376021,12.753835643503116
175,PFASNetwork >,CITY OF   ASHEBORO : LAKE LUCAS,44.81,Lake,35.72222051,-79.86198234,8.419788722881536,6.302112421413636,6.035001347094591,6.035001347094591,6.851317507059886
176,PFASNetwork >,CITY OF GREENSBORO : LAKE BRANDT,60.0,Lake,36.16461428,-79.8474174,4.298455936375431,1.5368129729349664,10.261878564933548,10.261878564933548,10.80253091551108
177,PFASNetwork >,PIEDMONT TRIAD REGIONAL: RANDLEMAN LAKE,57.6,Lake,35.86570361,-79.82463113,14.672877643389997,11.54743242881701,7.541316791431159,7.541316791431159,5.0120587417723375
178,Drinking Water >,City of Asheboro,41.0,Drinking Water,35.7079146,-79.8136446,9.435852609068178,2.3943651501343646,2.4625470214243093,2.4625470214243093,6.322619134543674
179,UCMR 4,ROCKINGHAM  CITY OF,237.0,Drinking Water,34.9394992,-79.8072611,6.990321640377066,9.138076587682573,2.712836008359529,2.712836008359529,5.8207546516180475
180,Drinking Water >,City of Burlington,51.0,Drinking Water,43.326012,-79.7982923,389.2060283117253,755.5600278795126,353.83207463435514,353.83207463435514,764.3102172769387
181,Drinking Water >,City of Greensboro,124.0,Drinking Water,36.0726354,-79.7919754,10.85041558371616,6.764657491465476,2.6491647025447076,2.6491647025447076,5.388316258642375
182,Drinking Water <,Richmond County  NC,21.0,Drinking Water,35.003045,-79.7848422,12.772331815868146,8.039559674329556,4.7116691266286335,4.7116691266286335,9.433455279967228
183,PFASNetwork >,CITY OF GREENSBORO : LAKE TOWNSEND,40.0,Lake,36.18058866,-79.75909383,3.8558269385609707,6.13052101513871,2.5611276910505896,2.5611276910505896,8.17729825012636
184,Drinking Water <,City of Eden,1.25,Drinking Water,36.48890309,-79.75876709,9.804681751786504,1.0246304895729257,4.304602840312502,4.304602840312502,25.519048931370083
185,Drinking Water <,Rockingham  NC,1.15,Drinking Water,34.95470876,-79.74861141,7.26981739102424,3.5327987625501556,2.329153320944379,2.329153320944379,11.154075350072514
186,Drinking Water <,Hamlet  NC,9.2,Drinking Water,34.8848775,-79.6942222,6.026614920675237,1.5437596170780625,4.234592639737878,4.234592639737878,17.01149541341962
187,Drinking Water <,Ramseur  NC,0.0,Drinking Water,35.73696119,-79.665796,19.204524162409914,8.959486165039104,6.753388316772995,6.753388316772995,1.1744279141343714
188,Drinking Water <,Lake Reidsville  Reidsville  NC,6.6,Lake,36.28398103,-79.6623391,5.8551453661419135,8.493597068126343,4.2400929973719235,4.2400929973719235,1.371438735221052
189,UCMR,City of Greensboro-Mitchell Filter,124.0,Drinking Water,36.2152163,-79.6614376,12.438266161848402,5.692209993401136,7.4103308495216655,7.4103308495216655,5.618024557980108
190,Drinking Water >,liberty  NC : Well,25.62,Well,35.85514777,-79.57594481,4.457542309100817,11.401886612920313,3.1577919600442574,3.1577919600442574,15.649501280455635
191,Drinking Water <,SOUTHERN PINES  TOWN OF: DROWNING CREEK,6.73,Drinking Water,35.12170892,-79.57539935,11.385153464470111,8.25689580935505,11.979436990961487,11.979436990961487,19.829155385969404
192,UCMR,Moore County Public Utilities - Pinehurst-EMWD Intertie,25.0,Drinking Water,35.2647916,-79.5378634,13.70662215002977,5.612715738005731,15.537203612824847,15.537203612824847,23.02411686729472
193,Drinking Water <,MOORE  COUNTY OF  MOORE CO PUBLIC UTIL-PINEHURST: WELL #16,7.8,Well,35.16941437,-79.49955755,12.676229333861642,2.0957921832023545,5.75673234278021,5.75673234278021,27.87737977308719
194,Military Site,Fort Bragg - Camp Mackall,32.0,Military Site,35.03294091,-79.48893681,1.2769770227599928,5.521359636111335,12.63705239132925,12.63705239132925,22.811665743975226
195,Drinking Water <,TAYLORTOWN  TOWN OF  WELL #1,3.7,Well,35.20456865,-79.4853431,9.514726208705689,2.7020553401923104,7.841434376616003,7.841434376616003,30.528435480211076
196,Drinking Water <,PINEBLUFF  TOWN OF  : WELL #2,0.0,Well,35.10952939,-79.47936201,7.95616175508607,4.387643825240866,4.701505502373463,4.701505502373463,24.436294666785365
197,Drinking Water >,Laurinburg  NC,0.0,Drinking Water,34.74787823,-79.47768249,10.894168641265248,4.683797104370928,5.730080970056332,5.730080970056332,36.3263921065481
198,PFASNetwork >,TOWN OF LIBERTY,25.0,Drinking Water,35.93973255,-79.47558539,9.172919545565465,5.076983021184832,9.301026709364365,9.301026709364365,11.904230474899144
199,Drinking Water >,Siler City,63.0,Drinking Water,35.7234734,-79.4622431,17.401334219085054,18.16284313704212,1.4358727948795658,1.4358727948795658,3.0887167793785717
200,PFASNetwork >,CITY OF SILER CITY : ROCKY RIVER (LOWER),62.82,River,35.71744097,-79.45836268,18.152611584381948,17.915709010660052,1.7668216702426263,1.7668216702426263,2.9911168582887364
201,UCMR 4,CARTHAGE  TOWN OF,79.0,Drinking Water,35.40687,-79.4253776,18.830643984422487,13.04887805176561,24.39501612216248,24.39501612216248,11.607463003171413
202,Drinking Water <,Carthage  NC,21.0,Drinking Water,35.3459867,-79.4169711,12.036714927357215,6.54332720216037,17.5869084077173,17.5869084077173,17.34461666511036
203,Drinking Water >,Moore County Public Util. - Pinehurst,118.0,Drinking Water,35.30748329,-79.41511793,7.842596502793068,2.9389086217369966,13.340225856364638,13.340225856364638,21.160501291458015
204,PFASNetwork >,CARTHAGE  TOWN OF: NICKS CREEK,45.45,Creek,35.25141413,-79.41300929,2.444763319732722,4.92665046331679,7.2538781776673105,7.2538781776673105,26.9511241752373
205,PFASNetwork >,CARTHAGE  TOWN OF: TOWN POND,20.6,Lake,35.3313566,-79.40946608,10.310902544180463,5.337188041895959,15.880024743295367,15.880024743295367,19.0854284866785
206,Drinking Water >,Graham  NC,118.0,Drinking Water,36.0679144,-79.4003887,6.566863234866416,7.68233597028431,2.331477061668753,2.331477061668753,3.7450372563203076
207,Drinking Water <,Southern Pines  NC,3.9,Drinking Water,35.1740471,-79.3922539,7.336486314635368,7.82041890401211,1.8060189018839379,1.8060189018839379,22.90487751249082
208,UCMR 4,TOWN OF SOUTHERN PINES,94.0,Drinking Water,35.1740471,-79.3922539,7.336486314635368,7.82041890401211,1.8060189018839379,1.8060189018839379,22.90487751249082
209,PFASNetwork >,TOWN OF WAGRAM,14.65,Drinking Water,34.88405607,-79.37259269,10.461234304309443,4.950199949089302,13.058409516803206,13.058409516803206,18.497849059433065
210,PFASNetwork >,TOWN OF PITTSBORO :  HAW RIVER,54.32,River,36.09365694,-79.36948219,8.46065511179771,5.650238671609786,1.6912902271695982,1.6912902271695982,4.906667000924431
211,Drinking Water <,WAGRAM  TOWN OF: WELL #3,14.65,Well,34.88960839,-79.36825677,11.077090156118222,5.594738576084045,13.528452322624247,13.528452322624247,17.772291420282496
212,Drinking Water >,Wagram  NC 28396,12.0,Drinking Water,34.8879396,-79.3661515,10.896049027180595,5.434416873364977,13.297159629279912,13.297159629279912,17.787933349382765
213,Drinking Water <,MAXTON  TOWN OF,0.0,Drinking Water,34.74199654,-79.34352895,5.859883070217702,3.3963311541957935,3.361431784409294,3.361431784409294,30.94786473981999
214,Drinking Water <,Yanceyville  NC : FARMER LAKE,13.0,Lake,36.4040273,-79.3361314,4.841873712810387,4.908710507898479,1.9976875649637762,1.9976875649637762,26.594933473349684
215,UCMR 4,MAXTON  TOWN OF,79.0,Drinking Water,34.7220727,-79.3127543,9.186986584310588,4.520064374151912,5.785138348324926,5.785138348324926,32.11707860987286
216,Drinking Water <,ROWLAND  TOWN OF  : WELL #1,0.0,Well,34.5329821,-79.28927459,22.6720481265705,17.050262965576277,18.094996234343068,18.094996234343068,51.06952717186633
217,Drinking Water <,RAEFORD  CITY OF: WELL #26,0.0,Well,34.98357596,-79.25663699,7.296787467827973,4.308830828950668,15.710393081575425,15.710393081575425,3.3060122870748936
218,UCMR 4,RAEFORD  CITY OF,79.0,Drinking Water,35.0432488,-79.2451149,5.644964589228228,4.552892935684922,12.467629958359918,12.467629958359918,3.7263183123747092
219,Drinking Water >,Robeson County,150.0,Drinking Water,34.62618241,-79.22126924,14.86682500590901,11.360918086198573,13.51107059609132,13.51107059609132,39.34289937438638
220,PFASNetwork >,ORANGE WATER & SEWER AUTHORITY: CANE CREEK RESERVOIR,119.02,Creek,35.96353884,-79.2202736,12.999716307573253,7.554209731900746,7.190548418329309,7.190548418329309,8.331947830469787
221,Drinking Water <,Milton  NC : Well #6,0.0,Well,36.53069169,-79.2098366,21.69683681767678,13.421848777079372,13.30880925367709,13.30880925367709,44.423049982241245
222,PFASNetwork >,"PILGRIM""S PRIDE WATER SYSTEM: DEEP RIVER",42.22,River,35.49626203,-79.20473086,13.285314826044143,1.7937857844570644,2.4745641435827745,2.4745641435827745,8.876381548677184
223,Drinking Water <,RED SPRINGS  TOWN OF: WELL #2,0.0,Well,34.80650752,-79.18761015,16.75478405892239,2.885685248273176,10.117690393089774,10.117690393089774,19.30206301017666
224,Drinking Water >,Sanford  NC 27330,42.0,Drinking Water,35.4798757,-79.1802994,13.294800329601227,4.436116440386244,2.6322207956815524,2.6322207956815524,11.005288801021829
225,Drinking Water <,City of Sanford  NC,45.0,Drinking Water,35.4798757,-79.1802994,13.294800329601227,4.436116440386244,2.6322207956815524,2.6322207956815524,11.005288801021829
226,Drinking Water >,Liberty,26.0,Drinking Water,37.3492244,-79.1784123,107.21370997727156,93.52950047003918,94.82597242403894,94.82597242403894,118.63480282202872
227,UCMR 4,BRAGG COMMUNITIES/NTA,158.0,Drinking Water,35.2762929,-79.1774268,19.261132506593093,3.294638241187784,18.746703529226043,18.746703529226043,17.842838988657697
228,Drinking Water >,Pittsboro,845.0,Drinking Water,35.7201463,-79.1772371,17.074877060478983,8.164904147542504,6.644900984853489,6.644900984853489,6.422697702782764
229,PFASNetwork >,CITY OF LUMBERTON : LUMBER RIVER,56.5,River,34.60574323,-79.15325565,8.547863856934368,5.730136898740028,8.21908547368219,8.21908547368219,37.00179248520083
230,Drinking Water <,Eno River  Hillsborough  NC,1.1,River,36.07185809,-79.13068756,13.421433695902055,1.8153625027781581,3.88021016228012,3.88021016228012,13.937075779495643
231,Drinking Water >,LUMBERTON  CITY OF : LUMBER RIVER,56.52,River,34.6000138,-79.1205403,5.651005448695175,3.8334727662746024,6.248856440091837,6.248856440091837,34.59920313756679
232,Drinking Water <,FAIRMONT TOWN OF ,0.0,Drinking Water,34.50127473,-79.11820387,13.212547559015777,0.985257042343474,2.096709915110862,2.096709915110862,40.73273870320939
233,Drinking Water >,orange water and sewer authority,30.0,Drinking Water,35.90362439,-79.09757402,4.746097911932762,7.143546606068223,4.566359635982228,4.566359635982228,6.44304610826663
234,Drinking Water >,orange water and sewer authority,30.0,Drinking Water,35.90362439,-79.09757402,4.746097911932762,7.143546606068223,4.566359635982228,4.566359635982228,6.44304610826663
235,Drinking Water >,College View Mobile Home Park,152.0,Drinking Water,35.73288671,-79.093812,17.009417091832063,9.569670406307527,10.395787838739757,10.395787838739757,1.213993516055403
236,Drinking Water <,ROXBORO STEAM PLANT: HYCO LAKE,14.0,Lake,36.48569408,-79.07347415,22.879597540901596,1.2041789966390724,0.26830286672986087,0.26830286672986087,32.1123208771649
237,Drinking Water >,Cliffdale West,41.0,Drinking Water,35.0628314,-79.0712581,11.812830390644091,7.452761695408141,4.604042782752773,4.604042782752773,11.119357398703713
238,Drinking Water >,City of Conway,37.0,Drinking Water,33.8360034,-79.0478143,57.42313115912407,53.5928461854698,60.93924898808097,60.93924898808097,93.36667089487287
239,Drinking Water <,FAIR BLUFF  TOWN OF,0.0,Drinking Water,34.31190057,-79.03354626,30.086421969586834,21.909885222256484,20.922263053139737,20.922263053139737,52.101619613226724
240,PFASNetwork >,CHATHAM COUNTY : JORDAN LAKE,111.9,Lake,35.7421171,-79.02527665,19.249187634163164,6.641112594941771,11.182883848664043,11.182883848664043,7.484142546897075
241,Drinking Water <,SANFORD  CITY OF  CAPE FEAR RIVER,44.6,River,35.54870229,-79.02497112,7.626868069510377,5.430774740663821,2.7872782418020208,2.7872782418020208,0.049470097798932376
242,Drinking Water >,Grand Strand Water and Sewer Authority,40.0,Drinking Water,33.7827418,-79.0245755,61.44878309262813,53.346116246257886,65.16778727713977,65.16778727713977,92.3366365881577
243,Drinking Water >,Brookwood Community NC,42.0,Drinking Water,35.7595731,-79.0192997,20.576378244699143,4.78643826385484,13.01178927730001,13.01178927730001,8.5366013051973
244,Drinking Water <,Henderson-Kerr Lake Reg Water  NC,5.5,Lake,35.7595731,-79.0192997,20.576378244699143,4.78643826385484,13.01178927730001,13.01178927730001,8.5366013051973
245,Drinking Water <,Parkton  NC,0.0,Drinking Water,34.90370061,-79.00905333,15.180288022716518,11.981324166610918,8.472277433368305,8.472277433368305,11.653139754256351
246,Drinking Water >,City of Lumberton,57.0,Drinking Water,34.6182199,-79.0086424,4.787941189438684,2.188982515891042,1.408009508681344,1.408009508681344,24.7758964504984
247,Military Site,Fort Bragg,84.1,Military Site,35.1486886,-79.00273883,2.4599388322621794,4.529663352258081,0.954567754728515,0.954567754728515,5.188816197249579
248,Drinking Water <,City of Roxboro  NC,4.0,Drinking Water,36.3937519,-78.982788,12.651099199507188,5.468115933783697,4.79655678843266,4.79655678843266,20.34087586555261
249,PFASNetwork >,CARY  TOWN OF : JORDAN LAKE,95.62,Lake,35.82233055,-78.98201798,15.298012028409378,4.907086871020546,11.10301495771572,11.10301495771572,5.004222222921399
250,Drinking Water <,SAINT PAULS  NC,0.0,Drinking Water,34.80858863,-78.98046095,15.69191128906464,1.0919468918830522,1.0770678893351933,1.0770678893351933,14.78735805433903
251,Drinking Water >,Harris Nuclear Plant Water System,106.0,Drinking Water,35.6328719,-78.9542169,14.431387564672518,0.497216648893478,4.384040969420074,4.384040969420074,8.351081673191961
252,PFASNetwork >,CERRO GORDO  TOWN OF,0.0,Drinking Water,34.32719382,-78.95329704,23.236371113534215,18.93788318617561,16.90833748591255,16.90833748591255,45.578164990459356
253,PFASNetwork >,HARRIS NUCLEAR PLANT WATER SYSTEM: HARRIS LAKE,101.0,Lake,35.63413007,-78.941649,15.529542023329217,0.8834743138996982,5.4577410373939115,5.4577410373939115,8.791073730880807
254,Drinking Water <,HARRIS NUCLEAR PLANT WATER SYSTEM: HARRIS LAKE,102.7,Lake,35.62126536,-78.91685402,17.18257965318863,2.5271171771937104,7.659274461947694,7.659274461947694,8.57141186194321
255,PFASNetwork >,HARRIS NUCLEAR PLANT WATER SYSTEM: HARRIS LAKE AUX RESERV,67.0,Lake,35.63413007,-78.91649003,17.648275155621167,3.0631336272498064,7.701689648378641,7.701689648378641,9.773778990080707
256,UCMR 4,LILLINGTON WATER SYSTEM,79.0,Drinking Water,35.38163,-78.9061921,15.974538245561659,12.812832124900469,19.8650369691897,19.8650369691897,8.729487443809267
257,Drinking Water <,FAYETTEVILLE-PWC,72.14,Drinking Water,35.06982054,-78.89719647,7.742192940106192,2.606962157968385,1.1835946030517326,1.1835946030517326,1.6512473899282698
258,Drinking Water >,Harnett County,218.0,Drinking Water,35.3578648,-78.8835548,14.13915072082878,12.517468180075008,20.786234476831904,20.786234476831904,8.257905364844571
259,Drinking Water <,Durham County  NC,1.6,Drinking Water,36.0483715,-78.8835548,20.528263692717978,3.0927108151479157,3.7496291476602224,3.7496291476602224,15.779608841739943
260,Drinking Water >,City of Durham,15.0,Drinking Water,36.00846439,-78.87804733,16.33628508158312,0.6476586809189557,0.9808180431903847,0.9808180431903847,12.138542258903954
261,Drinking Water <,TABOR CITY  TOWN OF   WELL #1,0.0,Well,34.15241765,-78.87738036,20.195064361225906,19.235734553453344,22.416639939517495,22.416639939517495,55.09401911336368
262,Drinking Water <,DURHAM : LAKE MICHIE,8.9,Lake,36.13052206,-78.87307048,19.19143259960131,10.1374809442002,4.725984179195895,4.725984179195895,24.52119615261812
263,UCMR 4,ROBESON COUNTY WATER SYSTEM,17.87,Drinking Water,35.0637521,-78.8722341,8.231289397226124,0.25098436045708916,2.1532143040965033,2.1532143040965033,0.1770503544819407
264,UCMR,Fayetteville Public Works Commission-Glenville WTP,15.0,Drinking Water,35.0637521,-78.8722341,8.231289397226124,0.25098436045708916,2.1532143040965033,2.1532143040965033,0.1770503544819407
265,UCMR,ROBESON COUNTY WATER SYSTEM-Rocco WTP,200.6,Drinking Water,35.0637521,-78.8722341,8.231289397226124,0.25098436045708916,2.1532143040965033,2.1532143040965033,0.1770503544819407
266,Drinking Water <,FAYETTEVILLE-PWC,115.49,Drinking Water,35.09157747,-78.85758298,8.628768525236488,2.9943115665995452,1.2204862061795811,1.2204862061795811,1.1558269457523036
267,Drinking Water <,Town of Holly Springs  NC,20.0,Drinking Water,35.6512655,-78.8336218,12.566207588910316,2.7914154351826146,6.581059885949905,6.581059885949905,2.8659956296066738
268,Drinking Water <,DURHAM : LITTLE RIVER RESERVOIR,7.3,River,36.1518317,-78.82955047,19.62856967576237,6.426100823082977,3.0820709388147316,3.0820709388147316,21.006983770788107
269,Drinking Water <,DURHAM : LAKE MICHIE,7.3,Lake,36.1518317,-78.82955047,19.62856967576237,6.426100823082977,3.0820709388147316,3.0820709388147316,21.006983770788107
270,UCMR 4,DURHAM  CITY OF,316.0,Drinking Water,35.8387032,-78.8269385,5.671654673289546,6.391333975135933,0.21994637638144243,0.21994637638144243,8.458067619815756
271,UCMR,"DURHAM, CITY OF-DURHAM, CITY OF",26.1,Drinking Water,35.8387032,-78.8269385,5.671654673289546,6.391333975135933,0.21994637638144243,0.21994637638144243,8.458067619815756
272,Drinking Water <,HARNETT CO DEPT OF PUBLIC UTIL: CAPE FEAR RIVER,6.4,River,35.41614096,-78.82588221,9.574948900455833,6.202506495473752,13.865381495233537,13.865381495233537,1.3406772047775688
273,Unknown,Durham91,11.7,Drinking Water,36.09115383,-78.82512778,23.691010302634,4.311187627714087,1.521615440452253,1.521615440452253,22.444967957260335
274,Drinking Water >,Town of Fuquay-Varina,80.0,Drinking Water,35.5843235,-78.8000128,9.874131626080871,6.424370467741206,2.5947534992583074,2.5947534992583074,7.880123798934638
275,PFASNetwork >,BLADEN CO WTR DIST-WEST BLADEN: WELL #8,154.17,Well,34.6347438,-78.79817685,9.568848312859936,17.351356920493544,9.85466761980803,9.85466761980803,11.692153936713861
276,PFASNetwork >,SOUTH GRANVILLE WTR&SEWER AUTHORITY,45.02,Drinking Water,36.13774863,-78.79783253,22.744753444988813,4.400799564954577,0.16955318421840315,0.16955318421840315,21.998493269038807
277,Drinking Water >,BLADEN BLUFFS WATER SYSTEM: CAPE FEAR RIVER,423.49,River,34.75672939,-78.79532611,15.369858848757918,11.045896448189042,1.504221884777439,1.504221884777439,1.597865390657354
278,UCMR,Town of Cary-Cary/Apex WTP,10.0,Drinking Water,35.7698044,-78.7816219,12.276451519443611,2.338324515398229,2.7524260994186447,2.7524260994186447,6.253354180252982
279,Drinking Water <,Cary  NC,31.0,Drinking Water,35.79154,-78.7811169,9.868844730799264,0.8023301214203952,1.1426421743611375,1.1426421743611375,8.495665009096768
280,Drinking Water >,South Granville Water and Sewer Authority,49.0,Drinking Water,36.13995065,-78.7632476,24.913541154190806,2.47884882193984,1.8601751918636318,1.8601751918636318,21.594906686022803
281,Drinking Water >,South Granville Water and Sewer Authority,49.0,Drinking Water,36.13995065,-78.7632476,24.913541154190806,2.47884882193984,1.8601751918636318,1.8601751918636318,21.594906686022803
282,Drinking Water <,SOUTH GRANVILLE WTR&SEWER AUTHORITY  KNAPP OF REEDS CRK,45.02,Drinking Water,36.13634307,-78.75628986,25.652021341033908,2.862743251422884,1.3023265354045512,1.3023265354045512,21.547909798853098
283,Drinking Water <,Columbus County  NC,7.3,Drinking Water,34.2548658,-78.7476208,3.845125721852442,3.9125438696557864,6.793648200016624,6.793648200016624,39.241769843915876
284,PFASNetwork >,COLUMBUS COUNTY WATER DIST III: WELL #1,7.3,Well,34.46400522,-78.74431298,10.105863484136524,18.992057757402154,12.4761576174479,12.4761576174479,21.14435364127475
285,Drinking Water <,DUNN  CITY OF : CAPE FEAR RIVER,7.3,River,35.36028646,-78.73951959,2.355865782388804,5.349432294153179,12.999706512807885,12.999706512807885,3.5867578867545027
286,Drinking Water <,WADE  TOWN OF  WELL #3,36.0,Well,35.1586823,-78.72775183,19.560335936725377,13.075234784908975,12.166568879428764,12.166568879428764,7.974013154708231
287,UCMR 4,BLADEN CO WTR DIST-EAST BLADEN,316.0,Drinking Water,34.9303695,-78.7249469,11.411160958080126,13.62519405864625,6.959496035666831,6.959496035666831,11.226215970115481
288,PFASNetwork >,BLADEN CO WTR DIST-EAST BLADEN,107.34,Drinking Water,34.77872167,-78.71237592,16.993701527268584,17.953636540714744,9.281061632972605,9.281061632972605,5.241479474363787
289,Drinking Water <,TOWN OF BRUNSWICK_0424040  DUTCHESS FOREST S/D: WELL #1,0.0,Well,34.29138299,-78.69843477,2.604320627846073,4.786721648940085,2.5228499308649246,2.5228499308649246,33.63198301460538
290,Drinking Water <,WHITEVILLE  CITY OF: WELL #5,0.0,Well,34.32894213,-78.69160818,6.768308775758357,6.759731952174375,3.0254484030107793,3.0254484030107793,29.573859522541106
291,PFASNetwork >,CLARKTON  TOWN OF,0.0,Drinking Water,34.47208689,-78.64969609,3.0360987662711594,15.309423492109996,16.274788622073256,16.274788622073256,13.995244203142708
292,Drinking Water <,RALEIGH  CITY OF  : LAKE BENSON,27.42,Lake,35.66302869,-78.61240961,9.248895174415498,6.807320667911391,4.815246630586858,4.815246630586858,1.8726768024795843
293,Drinking Water >,City of Dunn,90.0,Drinking Water,35.3062743,-78.6089028,13.70579180688037,7.423697451880129,1.7198511126740554,1.7198511126740554,7.674425472028834
294,PFASNetwork >,INTERNATIONAL PAPER COMPANY: CAPE FEAR RIVER,299.0,River,34.61306793,-78.60793568,2.940789075668199,0.8426643206176849,0.7746756682013372,0.7746756682013372,2.118062562734108
295,Drinking Water <,RALEIGH  CITY OF  : FALLS OF THE NEUSE,34.0,Drinking Water,35.95128957,-78.58195881,20.343089292500306,4.380394722641177,4.9523167784025555,4.9523167784025555,5.618286850191976
296,Drinking Water >,Bladen Bluffs Water System,425.0,Drinking Water,34.5882404,-78.5660852,1.825412282880865,3.121669776708702,4.0771724179124655,4.0771724179124655,2.5692840557784398
297,Drinking Water <,Bladen County  NC,107.0,Drinking Water,34.5882404,-78.5660852,1.825412282880865,3.121669776708702,4.0771724179124655,4.0771724179124655,2.5692840557784398
298,PFASNetwork >,COLUMBUS COUNTY WATER DIST III: WELL #1,7.3,Well,34.2902716,-78.55347306,14.557215929384835,18.101655640505832,14.973458932831084,14.973458932831084,26.53210092722707
299,PFASNetwork >,FAYETTEVILLE PUBLIC WORKS COMM: CAPE FEAR RIVER,112.0,River,34.62392377,-78.54912814,3.880556049799827,3.80311589514435,4.781635128786657,4.781635128786657,0.14361636449843246
300,PFASNetwork >,BLADEN BLUFFS WATER SYSTEM: CAPE FEAR RIVER,423.48,River,34.6236123,-78.54816596,3.9218598653388,3.8705965284987656,4.857642610261847,4.857642610261847,0.23751216351706972
301,Drinking Water <,JOHNSTON COUNTY,134.1,Drinking Water,35.47223,-78.52421863,14.296557293415626,9.61330233658191,11.895173566859265,11.895173566859265,6.113409749751361
302,Drinking Water >,LAKE WACCAMAW  TOWN OF: Well,9.0,Well,34.32412982,-78.5196081,17.694878894070474,21.545917379349014,17.99796544424278,17.99796544424278,21.64851874120036
303,Drinking Water <,WHITE LAKE  TOWN OF  WELL #3A,0.0,Well,34.65503818,-78.51496383,8.53608582506467,8.276539354112007,9.066733145167555,9.066733145167555,3.9209380678513948
304,Drinking Water <,Roseboro  NC,1.1,Drinking Water,34.9529475,-78.5086181,13.872566011897236,5.334009601888263,17.38755149856121,17.38755149856121,11.579364985673646
305,Drinking Water <,Lake Waccamaw  NC,9.0,Lake,34.3190578,-78.5000088,19.153113189011,23.23557519310789,19.753941837822833,19.753941837822833,21.007610315595617
306,Drinking Water <,Salemburg  NC,7.35,Drinking Water,35.01875455,-78.49973374,13.43754251171171,5.681575939122053,15.015739957377761,15.015739957377761,15.046198758285051
307,Drinking Water <,FRANKLINTON  TOWN OF: TAYLOR CREEK,19.16,Drinking Water,36.10569223,-78.47305579,16.00445488252482,10.011935905815214,5.670039699750733,5.670039699750733,5.780281518730378
308,UCMR 4,RALEIGH  CITY OF,188.0,Drinking Water,35.5981967,-78.4524591,8.590135830757077,9.395030953306222,3.7313582779645698,3.7313582779645698,5.237034151623948
309,UCMR 4,OXFORD  CITY OF,79.0,Drinking Water,36.3715036,-78.4524591,7.059824113194065,2.75912812242342,9.883641927184216,9.883641927184216,14.648286130508872
310,Drinking Water <,BOLTON  TOWN OF: WELL #1,3.2,Well,34.32053999,-78.40237733,25.28298715334195,16.94711459746747,14.945070699624656,14.945070699624656,13.738072326248014
311,Drinking Water <,Bolton  NC,3.2,Drinking Water,34.3207243,-78.4019497,25.30142305246184,16.924538256231124,14.903337692092329,14.903337692092329,13.695548734519708
312,Drinking Water <,town of GARLAND,0.0,Drinking Water,34.78725447,-78.39810569,21.712341259745635,20.551782158354992,23.206622140723763,23.206622140723763,5.831130053615376
313,UCMR 4,HENDERSON-KERR LAKE REG WTR,79.0,Lake,36.3338756,-78.3955986,12.382703380926145,1.9890735134580138,4.6127054130210565,4.6127054130210565,17.4167202678126
314,Drinking Water >,Johnston County - West,67.0,Drinking Water,35.4403514,-78.3842227,11.092757480728089,8.607301956204704,2.1092503762742787,2.1092503762742787,3.5395293934264815
315,PFASNetwork >,SMITHFIELD  TOWN OF: NEUSE RIVER,83.22,River,35.5200872,-78.3498787,4.252558732916239,0.6741082050303266,0.5241133062494299,0.5241133062494299,0.8103309755870807
316,PFASNetwork >,JOHNSTON CO-WEST: NEUSE RIVER,134.1,River,35.61563497,-78.34705819,9.263580067194999,8.482265561461167,5.173039439920868,5.173039439920868,1.3226465563526981
317,Drinking Water <,INTERNATIONAL PAPER COMPANY_0424820,299.12,Drinking Water,34.43392907,-78.3457085,25.318188887562208,15.976877603294136,14.251739401487377,14.251739401487377,4.9410343768833656
318,Drinking Water >,Town of Smithfield,85.0,Drinking Water,35.5084935,-78.3394455,5.762378126691746,1.1081028871248542,0.5180710981193639,0.5180710981193639,1.0524700691804247
319,PFASNetwork >,CFPUA-WILMINGTON: LOWER CAPE FEAR WSA - KINGS BLUFF,406.02,River,34.41074018,-78.31598543,28.414001705082534,12.253311246112565,10.513393734100905,10.513393734100905,2.057760732049769
320,Drinking Water <,EAST ARCADIA,0.0,Drinking Water,34.3876586,-78.30566628,29.932511526894135,10.11731834031185,8.00928898721825,8.00928898721825,2.2916307387369215
321,Drinking Water >,Louisburg  NC : TAR RIVER,0.0,River,36.10559548,-78.29437678,10.041981033850082,4.000972970967509,1.5776867196096447,1.5776867196096447,7.340527754227058
322,PFASNetwork >,CFPUA-WILMINGTON: CAPE FEAR RIVER KINGS BLUFF,281.42,River,34.39261061,-78.2881763,31.343615122446106,9.00780477160787,7.346276079444106,7.346276079444106,1.5923576692116423
323,PFASNetwork >,TOWN OF SELMA,59.4,Drinking Water,35.53913237,-78.2824784,9.729129375429089,6.711652865208552,3.6603291903196054,3.6603291903196054,6.7594440555498725
324,UCMR 4,SELMA  TOWN OF (COUNTY LINE),79.0,Drinking Water,35.5804492,-78.2703951,11.716832374696708,10.320818130583854,8.235820521814414,8.235820521814414,6.725078294525195
325,Drinking Water <,SAMPSON COUNTY PUBLIC WORKS DEPT  ,0.0,Drinking Water,35.02324006,-78.26667381,9.766066797332012,5.3503918731481885,4.016894337277466,4.016894337277466,16.093804083281313
326,UCMR 4,LAKE ROYALE S/D,79.0,Lake,36.0730279,-78.2476146,9.467316696370444,2.3449335362808603,3.969428165533917,3.969428165533917,7.876191239154639
327,Drinking Water <,Pine Level  NC,32.0,Drinking Water,35.5132157,-78.2444422,13.504826707554402,9.536282726792798,5.545712982062023,5.545712982062023,7.636688761981857
328,PFASNetwork >,CITY OF ROCKY MOUNT : TAR R @ RESERVR,68.0,Lake,35.95562725,-78.19767159,13.89196301086642,1.8707357953953707,7.3706346606462585,7.3706346606462585,2.1441609400280064
329,UCMR 4,CENTRAL NASH WATER & SEWER,79.0,Drinking Water,35.7773262,-78.1906417,19.922085688233658,11.875453190742892,8.909837413869012,8.909837413869012,3.9733269240514635
330,Drinking Water <,MICRO  TOWN OF  : WELL #3,21.4,Well,35.56973049,-78.1888869,18.491332103615544,15.83153811687305,3.771251665809853,3.771251665809853,1.8264366302111308
331,Drinking Water <,TURKEY  TOWN OF  WELL #2,0.0,Well,34.99329571,-78.18788502,15.749287930070375,12.69582676656437,3.0483848671777345,3.0483848671777345,16.388120458119573
332,Drinking Water <,FAISON  TOWN OF: WELL #4,0.0,Well,35.10912809,-78.13908833,18.892972186123064,6.146339503602078,12.831975001396161,12.831975001396161,2.8326025968334054
333,Drinking Water <,SPRING HOPE  TOWN OF  WELL #4 ELEM SCH,0.0,Well,35.95083724,-78.10896914,21.322497740785636,7.156317209012693,0.7129891463373143,0.7129891463373143,5.104364925323475
334,Drinking Water >,Aurora Water System,104.0,Drinking Water,34.99572961,-78.10220393,11.141425623348145,18.750118653372954,4.130911509928593,4.130911509928593,15.739505591098448
335,UCMR,Brunswick Regional Water & Sewer H2GO-Brunswick County Intertie,13.21,Drinking Water,34.2577465,-78.0880129,17.331540790073998,4.101164360387701,1.481149783829267,1.481149783829267,8.422776339348408
336,Drinking Water <,WARSAW  TOWN OF  WELL #6,0.0,Well,35.00260063,-78.07411014,8.576813807727252,18.024792247237556,6.754017727826293,6.754017727826293,15.720727177829119
337,Drinking Water <,MOUNT OLIVE  TOWN OF: WELL #3,0.0,Well,35.19733387,-78.06882619,18.6887567941354,6.800273817572836,7.629293473823219,7.629293473823219,8.280662434776684
338,Military Site,Military Ocean Terminal Sunny Point,150.0,Military Site,33.99132031,-78.06669116,6.825332882938621,3.8930331590714715,6.740151716327943,6.740151716327943,8.64846785476192
339,Drinking Water >,Sims  NC,21.0,Drinking Water,35.7609903,-78.0588786,8.081438926468078,6.543161142307989,8.740526564594958,8.740526564594958,9.153659028847153
340,Drinking Water <,Magnolia  NC,6.6,Drinking Water,34.89793941,-78.05629979,13.309815889710098,8.117103412464433,4.97331449747032,4.97331449747032,19.912316937593253
341,Drinking Water <,WAYNE WATER DISTRICTS: KIRBY WELL @ WTP 2,9.8,Well,35.54534918,-78.05174629,12.611198267766603,8.514299753663186,9.516779368345855,9.516779368345855,9.603384956399482
342,UCMR 4,MOUNT OLIVE  TOWN OF,158.0,Drinking Water,35.168552,-78.0423683,19.582462377460235,8.127318992720285,10.079116351208212,10.079116351208212,5.711121822709258
343,Drinking Water <,SOUTHERN WAYNE SANITARY DIST  FAIRGROUNDS #5,10.1,Drinking Water,35.31924622,-78.03412054,7.108991028808337,4.713238039152717,5.167523969891993,5.167523969891993,6.765840951503739
344,Drinking Water <,ROSE HILL  TOWN OF  : WELL #5,2.1,Well,34.83249587,-78.0275101,12.758820942332358,5.270058566573945,1.1041972355377614,1.1041972355377614,12.94621817351068
345,Drinking Water <,Lucama  NC,7.5,Drinking Water,35.6454365,-78.0097099,14.307369970905212,10.085722117271338,9.707108425695594,9.707108425695594,7.326317699401074
346,Drinking Water >,Brunswick County Water System,395.0,Drinking Water,33.99806451,-78.00899844,9.430305609509634,3.740847725009424,5.926842234847092,5.926842234847092,6.87261082802002
347,Drinking Water >,Lucama  NC : Well,7.5,Well,35.64247368,-78.0083168,14.596231833561744,10.405370898780772,9.772832031780663,9.772832031780663,7.449940076580086
348,Drinking Water >,The Village of Bald Head Island,27.0,Drinking Water,33.8737069,-78.0015309,8.894511952555193,9.659429464091552,7.742482163545739,7.742482163545739,4.596571861032447
349,Drinking Water <,NASHVILLE  TOWN OF: WELL #7,0.0,Well,35.97171536,-77.99841524,15.799749378297083,7.06848540528265,0.12346791926348986,0.12346791926348986,7.232069955614611
350,Drinking Water <,WALLACE  TOWN OF: WELL #1,0.0,Well,34.73598352,-77.99762341,1.7905078275426312,13.714442922237032,1.862486049911832,1.862486049911832,2.116469676266132
351,PFASNetwork >,THE VILLAGE OF BALD HEAD ISLAND: ROYAL JAMES WELL,28.81,Well,33.86451759,-77.99365306,10.132671017355666,10.733408337832442,8.850269011197508,8.850269011197508,5.805780369930254
352,Drinking Water >,City of Goldsboro,48.0,Drinking Water,35.38487482,-77.99317019,5.826317933569217,3.8959510379611393,3.129002974834684,3.129002974834684,3.0928141051037294
353,Drinking Water >,The Village of Bald Head Island,27.0,Drinking Water,33.86387755,-77.98634094,10.662060236832575,10.896339258711516,9.054912331988366,9.054912331988366,6.151763800163952
354,UCMR 4,BRUNSWICK COUNTY WATER SYSTEM,237.0,Drinking Water,34.3123653,-77.9852853,9.14211105743482,1.8153206822876011,0.20056375509737043,0.20056375509737043,2.8485851646126217
355,UCMR,CFPUA - Wilmington-Sweeny WTP,27.0,Drinking Water,34.3023653,-77.9852853,8.622388239651203,1.2004256213555295,0.9233024269453592,0.9233024269453592,2.6102131016533603
356,UCMR 4,SEYMOUR JOHNSON AFB,79.0,Drinking Water,35.3505693,-77.9681544,1.3886062244319128,0.6545682842081165,0.1370207754775177,0.1370207754775177,6.4929940251630125
357,Military Site,Seymour Johnson Air Force Base,312000.0,Military Site,35.35235733,-77.96526598,1.4547139542597918,0.848373624073772,0.4564172612764328,0.4564172612764328,6.625907729383317
358,PFASNetwork >,WILSON  CITY OF: WIGGINS MILL POND,21.81,Lake,35.69867605,-77.95993201,7.982754961645155,9.524932422718638,3.876048251421726,3.876048251421726,1.6297268572061983
359,PFASNetwork >,WILSON  CITY OF: LAWNDALE DR @TOISNOT RESEVOIR,26.0,River,35.70441039,-77.95099297,7.49227987183972,8.609854889835345,3.26326238939129,3.26326238939129,1.8597990050172144
360,Drinking Water >,Cape Fear Public Utility Authority - Wilmington,634.0,Drinking Water,34.24151153,-77.94636656,5.309815172861372,6.508075598544016,0.7282081377835538,0.7282081377835538,2.0141123793527775
361,Drinking Water >,College View Mobile Home Park,152.0,Drinking Water,35.99306377,-77.93688996,15.386618804301035,9.150604455591491,2.698311175708132,2.698311175708132,6.791524898426586
362,Drinking Water >,College View Mobile Home Park,152.0,Drinking Water,35.99306377,-77.93688996,15.386618804301035,9.150604455591491,2.698311175708132,2.698311175708132,6.791524898426586
363,Drinking Water <,GREENEVERS  TOWN OF: WELL #1,1.4,Well,34.82559819,-77.92780531,13.466858885897082,5.915355248272843,8.626690891250492,8.626690891250492,8.731684976534213
364,Drinking Water >,Pender County Utilities,426.0,Drinking Water,34.5512534,-77.9186064,20.187404907958598,6.349436708324848,19.91377985455968,19.91377985455968,1.4184607230011181
365,PFASNetwork >,CFPUA/MONTEREY HEIGHTS: LORDS CREEK,0.0,Creek,34.15199049,-77.91327722,13.178734570170882,1.21906470948094,3.797304082387818,3.797304082387818,3.325589269198435
366,Drinking Water >,City of Wilson,33.0,Drinking Water,35.7258286,-77.9111237,7.235703136002662,4.980853139080905,2.3428170478591532,2.3428170478591532,5.356659688874041
367,Drinking Water <,Bayleaf Master  NC,110.0,Drinking Water,35.3954395,-77.9066503,7.836012745637422,7.736611338406881,4.888705595507742,4.888705595507742,10.803679007764103
368,PFASNetwork >,PENDER COUNTY UTILITIES: LCFWSA,425.52,Drinking Water,34.55671896,-77.90412897,20.163568065295802,7.73137192377663,19.836052184504023,19.836052184504023,1.8112659543139626
369,PFASNetwork >,CAROLINA BEACH WATER SYSTEM: WELL #1,0.0,Well,34.0299088,-77.90304599,18.984214057782804,9.968714816601596,13.063333517227004,13.063333517227004,3.1542528609858085
370,Drinking Water >,Central Nash Water & Sewer,11.0,Drinking Water,35.9557893,-77.8977217,10.67396347881795,13.200806352747925,4.726881309043522,4.726881309043522,4.2568658750781925
371,PFASNetwork >,CFPUA-WILMINGTON: MASONBORO FOREST WELL #43,0.0,Well,34.1207647,-77.8854587,16.648014023472776,1.4225276183755255,8.018426156212277,8.018426156212277,5.5854014804097005
372,Drinking Water >,Corning Inc,315.0,Drinking Water,34.30057893,-77.8766128,4.022227973749367,3.0350461333587178,0.8528303662037701,0.8528303662037701,7.250484445251075
373,Drinking Water >,Corning Inc,315.0,Drinking Water,34.30057893,-77.8766128,4.022227973749367,3.0350461333587178,0.8528303662037701,0.8528303662037701,7.250484445251075
374,Drinking Water <,Elm City  NC,5.9,Drinking Water,35.8065455,-77.863315,6.412217948064701,9.941193210820154,5.43908032556906,5.43908032556906,10.107757653839466
375,Drinking Water <,Wilmington Ambient Atmosphere Sampling Site  : Ambient air was tested for PFAS at a site in North Carolina,6.0,Drinking Water,34.22033391,-77.86312396,6.479850525216727,9.803519259839202,3.43250394777687,3.43250394777687,8.178118848861992
376,Drinking Water <,Wilmington Atmospheric Deposition Site (Dry)  Dry deposition  material collected from free falling particulate matter  was tested for PFAS at a site in North Carolina,390.0,Drinking Water,34.22033391,-77.86312396,6.479850525216727,9.803519259839202,3.43250394777687,3.43250394777687,8.178118848861992
377,Drinking Water <,Wilmington Atmospheric Deposition Site (Wet),120.0,Drinking Water,34.22033391,-77.86312396,6.479850525216727,9.803519259839202,3.43250394777687,3.43250394777687,8.178118848861992
378,Drinking Water <,ELM CITY  TOWN OF: BLOODFIELD WELL,5.9,Well,35.80741323,-77.86307885,6.33100680562291,10.03632667848977,5.537319686169939,5.537319686169939,10.084730522833464
379,UCMR 4,BURGAW  TOWN OF,316.0,Drinking Water,34.5848419,-77.8595963,19.768811554380676,12.457533312707808,19.265111191047183,19.265111191047183,6.178234457455607
380,Drinking Water >,Willow Woods Arbor,132.0,Drinking Water,34.20409131,-77.85812168,8.278314498993145,8.47584199312213,5.2908700551154615,5.2908700551154615,9.192765989855028
381,Drinking Water <,WAYNE WATER DISTRICTS: ARRINGTON BRDG RD-SHALLOW,0.0,Drinking Water,35.47794517,-77.85224959,9.959859946074404,13.833103243668495,14.739982534088366,14.739982534088366,10.229548909857236
382,Drinking Water <,STANTONSBURG  TOWN OF  WELL #1,0.0,Well,35.66281574,-77.84598133,16.35264766815827,5.763068859567497,5.118533208896864,5.118533208896864,4.5679810556382785
383,Drinking Water >,Bradley Creek Boataminium,188.0,Drinking Water,34.21419482,-77.83399695,8.678399819940333,10.725609580133003,5.185224380869833,5.185224380869833,10.850419779279779
384,Drinking Water <,WRIGHTSVILLE BEACH WATER SYST: WELL #11,1708.5,Well,34.22053124,-77.82571457,8.768184084929835,11.757402119204661,5.206286735047484,5.206286735047484,11.249636210381228
385,UCMR 4,NORTHAMPTON--LAKE GASTON,79.0,Lake,36.5325826,-77.8252923,14.56775702023336,17.597359107480017,14.3931638949778,14.3931638949778,34.60001401694564
386,PFASNetwork >,WRIGHTSVILLE BEACH  TOWN OF well,1708.0,Well,34.22150476,-77.82133664,9.019901412066705,12.10734507694457,5.453811420847031,5.453811420847031,11.584439524556407
387,PFASNetwork >,CFPUA/NHC: WELL B - CASTLE HAYNE,207.8,Well,34.29550625,-77.80885765,8.841124341068655,8.510204498144432,5.578915223946209,5.578915223946209,11.056540728989772
388,Drinking Water <,WRIGHTSVILLE BEACH WATER SYST: WELL #4,14.3,Well,34.20517339,-77.79767512,11.85073547136588,12.56568118433389,8.285073641072017,8.285073641072017,14.294484601867868
389,Drinking Water >,Treasure Cove S/d,28.0,Drinking Water,34.27134066,-77.7928452,9.847582912233705,11.030455174971888,6.897761683584409,6.897761683584409,13.51472239343647
390,Drinking Water >,City of Rocky Mount,14.0,Drinking Water,35.9382103,-77.7905339,12.485952863152175,4.836397206718391,3.214602166885213,3.214602166885213,3.871401270544182
391,Drinking Water,Wrightsville Beach70,4930.0,Drinking Water,34.22111928,-77.79044432,11.443285687934342,14.157606648489269,7.932131174151772,7.932131174151772,14.28638908110117
392,Drinking Water <,LAGRANGE WATER SYSTEM: WELL #2,1.7,Well,35.30029363,-77.78659818,16.34015131196558,6.56962191097223,2.514217369681007,2.514217369681007,3.0009229082658098
393,Drinking Water <,Saratoga  NC,0.0,Drinking Water,35.65352611,-77.77832638,21.615179656532774,9.436304013167234,10.980103954433302,10.980103954433302,6.392367218476494
394,Drinking Water <,PINK HILL  TOWN OF  : WELL #1,1.4,Well,35.05233783,-77.74478202,0.507013742564367,26.56448199625638,11.290465935334256,11.290465935334256,10.091939141214517
395,Drinking Water <,NEUSE REGIONAL WTR & SWR AUTH: NEUSE RIVER,58.22,River,35.2238371,-77.73982087,16.68024554287668,8.343539575653384,7.383767731511512,7.383767731511512,4.907703209846413
396,PFASNetwork >,WELDON WATER SYSTEM: ROANOKE RIVER,19.07,River,36.49802834,-77.73756653,6.907278547176797,9.751066624559064,5.7901612333463355,5.7901612333463355,36.824240793669865
397,Drinking Water >,Macclesfield  NC : Well,0.0,Well,35.75328396,-77.66635523,23.260315212668974,11.85968781428113,16.186213310483787,16.186213310483787,8.221952386294305
398,Drinking Water <,town of ENFIELD nc,0.0,Drinking Water,36.18290272,-77.66635441,16.526289759443785,22.241008666193633,8.817991205416865,8.817991205416865,7.336685186172611
399,Drinking Water <,Roanoke Rapids  NC,13.0,Drinking Water,36.4615395,-77.6541464,5.54010789364971,1.4540302587457412,1.1479964013564572,1.1479964013564572,34.96094403276359
400,Drinking Water <,SNOW HILL  TOWN OF  TYSON WELL #5,0.0,Well,35.4372406,-77.65334216,12.55529039352145,10.48132138739077,18.56410653292792,18.56410653292792,3.089410319004614
401,Drinking Water <,PINETOPS  TOWN OF  : WELL #4,0.0,Well,35.76929067,-77.63080161,20.330929517238904,8.283462999745694,13.302121998710591,13.302121998710591,4.79556869627924
402,Drinking Water <,TOPSAIL BEACH  TOWN OF  WELL #2A,0.0,Well,34.38278766,-77.60977824,13.987503396001372,7.590210808817444,13.596067610634655,13.596067610634655,26.40122511036037
403,Drinking Water <,town of farmville nc,1.0,Drinking Water,35.59915977,-77.58830458,5.051021283761408,2.849048510371752,0.3905465987398761,0.3905465987398761,4.39844303710994
404,Drinking Water <,Farmville  NC,1.0,Drinking Water,35.5954381,-77.5852496,4.554370610673957,2.939080616990441,0.6772969232514691,0.6772969232514691,4.030344417368587
405,PFASNetwork >,KINSTON  CITY OF: DARDEN DR/WELL #11,0.0,Well,35.24214217,-77.57621288,10.239378585160088,0.48131035664473143,0.37854407354421526,0.37854407354421526,1.956447323544178
406,Drinking Water <,SURF CITY  TOWN OF  WELL #3,0.0,Well,34.43655257,-77.55671125,6.4278420839824815,0.8218512529532569,6.717667213115081,6.717667213115081,29.384557554200843
407,Drinking Water <,Surf City  NC,1.5,Drinking Water,34.4271121,-77.5460805,7.146545227986388,2.224846926557023,7.82855592204426,7.82855592204426,30.799802562997378
408,UCMR 4,ONSLOW WTR AND SEWER AUTHORITY,250.0,Drinking Water,34.5521821,-77.5390127,3.7173183299147006,12.693697044534066,6.350741105154167,6.350741105154167,21.35091868425622
409,Drinking Water >,Town of Tarboro,23.0,Drinking Water,35.8968236,-77.5358049,4.968258870953478,3.3194149165457567,1.6681786214829735,1.6681786214829735,0.48261564590784034
410,Drinking Water >,Bell Arthur Water Corporation,50.0,Drinking Water,35.5880165,-77.5116806,5.366829896782124,5.616319664320802,7.360988671784469,7.360988671784469,2.7055126285052027
411,Drinking Water <,TARBORO  TOWN OF  TAR RIVER,0.0,River,35.91711301,-77.50997421,4.411899955201672,2.440479406219771,4.902451083645042,4.902451083645042,3.3070468675019047
412,UCMR 4,JONES COUNTY WATER SYSTEM,395.0,Drinking Water,35.285623,-77.4931403,11.695931546797002,4.32227360529168,5.206182913141202,5.206182913141202,1.154410376188805
413,Drinking Water <,Onslow  NC,1.6,Drinking Water,34.6540094,-77.4701972,6.810694013453765,11.09944442573687,11.663714989237143,11.663714989237143,24.231298736602707
414,Drinking Water <,ONSLOW WTR AND SEWER AUTHORITY: WELL #13,1.6,Well,34.77145739,-77.45426946,6.957021936113253,4.848087183135939,4.211570237245918,4.211570237245918,28.690316537340987
415,Drinking Water <,SEABOARD  TOWN OF: WELL #1,0.0,Well,36.49597536,-77.43818577,25.090366395517485,9.681291642424878,17.878453633779838,17.878453633779838,40.30237258815194
416,Drinking Water <,Town of Docer ,0.0,Drinking Water,35.21553808,-77.436071,20.280463794363396,12.473825746605867,9.535920522284817,9.535920522284817,10.452787524155454
417,UCMR 4,WINTERVILLE  TOWN OF,222.0,Drinking Water,35.5278135,-77.4357739,8.678375109348002,7.704890373520649,12.047243837544968,12.047243837544968,9.094708675943286
418,Drinking Water <,GRIFTON  TOWN O,0.0,Drinking Water,35.37933643,-77.43076801,12.899693960373009,7.63161015970857,3.073436634047121,3.073436634047121,4.899815433594362
419,Drinking Water <,JACKSON  TOWN OF: WELL #2,0.0,Well,36.39168581,-77.42042064,20.82432872110839,2.8099799780564636,17.648799188274037,17.648799188274037,29.070972241936875
420,Drinking Water <,Ayden  NC,1.2,Drinking Water,35.4726626,-77.4155203,5.0932563737906404,9.107267911601168,7.40471602416148,7.40471602416148,6.572870182832071
421,Drinking Water <,WINTERVILLE  TOWN OF  HUNSUCKER WELL,0.0,Well,35.51192534,-77.40508027,5.409027799033822,5.899835612591664,11.855521332531588,11.855521332531588,9.51824597368332
422,Drinking Water <,GREENVILLE UTILITIES COMM: TAR RIVER,25.6,River,35.63208589,-77.40249665,1.4317259591977822,4.80332333901662,2.752485619679482,2.752485619679482,2.3519348744631543
423,UCMR 4,GREENVILLE UTILITIES COMM,316.0,Drinking Water,35.6599999,-77.4,2.4004371976785754,3.519133528639806,3.3633199515735495,3.3633199515735495,2.534702133020174
424,Military Site,CAMP LEJEUNE NC MCB,179348.0,Military Site,34.58415338,-77.36035053,15.776721659578415,8.997169567351289,7.496315961192111,7.496315961192111,35.21528192200251
425,Drinking Water >,Neuse Regional Water and Sewer Authority,58.0,Drinking Water,35.5546941,-77.2999073,9.927891907762135,4.82302666948791,10.178880975528617,10.178880975528617,10.512587231922781
426,Drinking Water <,Rich Square Township  NC : Well #1,0.0,Well,36.27297736,-77.28712535,10.91957668855083,18.06874702451349,15.812246622719181,15.812246622719181,22.668087406434303
427,Drinking Water <,Rich Square Township  NC,0.0,Drinking Water,36.27408451,-77.27545238,9.881226167495582,17.638705810514615,15.58851368402901,15.58851368402901,23.405987537893953
428,Drinking Water <,Robersonville Township  NC,0.0,Drinking Water,35.83769738,-77.26740343,8.25885863670734,15.98473981573993,12.087335655717174,12.087335655717174,2.427547878824173
429,PFASNetwork >,MARTIN COUNTY REGIONAL WASA : ROANOKE RIVER,14.92,River,36.09638608,-77.24931429,23.733085269686867,16.53266075211553,5.3452743618479595,5.3452743618479595,17.039806609474944
430,Drinking Water >,Montgomery County,14.0,Drinking Water,39.1547426,-77.2405153,287.03366943392246,301.4047283907232,47.62357261057162,47.62357261057162,318.99005855528674
431,PFASNetwork >,TOWN OF MAYSVILLE  : Well,334.4,Well,34.90291472,-77.22999023,14.393394293686217,3.3714414251541247,20.90224334017658,20.90224334017658,28.227228177459747
432,Drinking Water <,TOWN OF CONWAY  TOWN OF: WELL #5A,0.0,Well,36.43189091,-77.22680063,15.522437426807974,0.7382996599581597,0.4161365876792014,0.4161365876792014,40.27928502732671
433,Drinking Water <,MARTIN CO WATER & SEWER DIST I: WELL #1,6.2,Well,35.90642883,-77.22468122,6.546512722678282,12.664846701244588,4.190442706605671,4.190442706605671,10.665464720282037
434,Drinking Water <,POLLOCKSVILLE  TOWN OF  : WELL #1,0.0,Well,35.00420734,-77.22095877,4.567931751881079,8.500130357668121,15.07332869377582,15.07332869377582,19.935178910947762
435,Drinking Water <,WOODLAND  TOWN OF: WELL #1,0.0,Well,36.32839726,-77.21223642,4.928672577252488,10.96184009342397,11.251259767646474,11.251259767646474,31.667772050457486
436,Drinking Water <,GRIMESLAND TOWN OF,1.2,Drinking Water,35.56033915,-77.1888363,12.6038840252752,6.7720447402997435,7.679915225505934,7.679915225505934,7.685837173227646
437,Drinking Water <,SEVERN  TOWN OF: WELL #2,0.0,Well,36.51482712,-77.18775621,23.94047926051644,10.259461549802593,0.2766161593354495,0.2766161593354495,49.88887763884834
438,Drinking Water <,River Bend  NC,0.0,River,35.06368304,-77.17422538,8.660154254812344,10.636116751516221,10.131492477285185,10.131492477285185,13.171958219594625
439,Drinking Water <,VANCEBORO WATER SYSTEM: WELL #1,0.0,Well,35.30837903,-77.15283699,26.77304248363592,10.640931227942394,10.977252755508644,10.977252755508644,13.641056307099243
440,Drinking Water <,Martin County  NC,15.0,Drinking Water,35.8733053,-77.1485163,3.1996085744702203,5.036759734224842,11.000398513852092,11.000398513852092,12.219660789562171
441,Drinking Water <,MURFREESBORO  TOWN OF: WELL #1,0.0,Well,36.43536889,-77.10404357,16.169364934311645,10.568194296113655,10.7190586026256,10.7190586026256,47.0061406966169
442,Drinking Water <,Chocowinity  NC,9.1,Drinking Water,35.5126631,-77.1005091,7.8442906183859336,5.408964569088252,5.965333857088707,5.965333857088707,16.52601618181864
443,Drinking Water <,TOWN OF CHOCOWINITY  CHOCOWINITY WATER SYSTEM: WELL# 2A,9.09,Well,35.50090121,-77.08419431,8.283028825388055,6.103192137143158,7.034076093970036,7.034076093970036,18.484860163836284
444,Drinking Water >,City of Washington,2.5,Drinking Water,35.55971193,-77.06935361,2.091225147241859,0.5741407232943054,1.2381189545156732,1.2381189545156732,15.49142824976775
445,Drinking Water >,Beaufort County Southside,1.4,Drinking Water,35.44671689,-77.05801979,13.727663150133473,12.046277389478979,12.10464074705459,12.10464074705459,24.651708499605096
446,UCMR 4,WILLIAMSTON  TOWN OF,395.0,Drinking Water,35.7774892,-77.0564464,14.431928631297497,10.095712540766245,21.881236880979024,21.881236880979024,18.08289759760517
447,Drinking Water <,City of Washington  NC,2.0,Drinking Water,35.5465517,-77.0521742,2.6147394247056246,1.8609262111447316,2.20721716529935,2.20721716529935,17.556607064421097
448,Drinking Water <,MARTIN CO REGIONAL WASA: ROANOKE RIVER,14.9,River,35.86253077,-77.04624154,12.0571383894628,4.179458587876571,19.219915926557405,19.219915926557405,20.3172733230415
449,Drinking Water <,New Bern  NC,1.4,Drinking Water,35.108493,-77.0441143,4.296564996049545,6.5375272137060705,3.0415273123816533,3.0415273123816533,0.9993239053504571
450,Drinking Water <,FIRST CRAVEN SANITARY DISTRICT,1.4,Drinking Water,35.12173222,-77.00436402,6.60310240625618,5.840383090819399,2.2616360512186193,2.2616360512186193,3.7245375724794503
451,Drinking Water <,Ahoskie  NC,2.2,Drinking Water,36.2868223,-76.9846808,16.673317153046764,11.793702954422558,2.6578175539692035,2.6578175539692035,45.219020194051154
452,PFASNetwork >,Town of AHOSKIE,7.1,Drinking Water,36.29157902,-76.98269688,16.81219424484251,11.250402770933501,2.9643331810518565,2.9643331810518565,45.61033097495134
453,Drinking Water <,WINDSOR  TOWN OF  WELL #6B,0.0,Well,36.00472998,-76.94828547,26.34840720257625,14.768646364090758,21.43561728270514,21.43561728270514,35.353174726421905
454,Drinking Water <,POWELLSVILLE  TOWN OF  : WELL #1 WYNN ST,0.0,Well,36.22480862,-76.93215929,22.904893291355265,16.373447905634706,5.736646379249732,5.736646379249732,47.20256524373526
455,Drinking Water <,WINTON  TOWN OF  WELL #1,0.0,Well,36.39732156,-76.93109559,23.977081105697025,3.6650204654279928,4.724516759337486,4.724516759337486,55.601029698636765
456,Drinking Water <,VILLAGE OF COFIELD  WELL #3,0.0,Well,36.35668026,-76.90951626,24.17094828410841,6.827187831809837,1.1922155046410299,1.1922155046410299,54.805910047453565
457,Military Site,Cherry Point Marine Corps Air Station,151.0,Military Site,34.88590927,-76.90511347,2.775092267451514,3.951271991001407,1.6553017800200374,1.6553017800200374,3.582625922956764
458,Drinking Water <,JAMESVILLE  TOWN OF: WELL #1,0.0,Well,35.81076375,-76.89537255,12.207432162029768,9.467313456536305,10.853685609095077,10.853685609095077,32.75833948321095
459,Drinking Water <,NEWPORT WATER SYSTEM: WELL #3,0.0,Well,34.7893615,-76.87043664,12.333356867430277,3.4379097814086674,0.2305110772264399,0.2305110772264399,14.754302708434402
460,UCMR 4,ATLANTIC BEACH  TOWN OF,15.0,Drinking Water,34.7061343,-76.8374995,16.438760689105468,7.8482407548783595,4.533414292149531,4.533414292149531,24.475871898253683
461,Drinking Water <,TOWN OF BATH  WATER SYSTEM: WELL #1,4.5,Well,35.47352832,-76.81179,24.079641673253548,4.435821711915634,11.093339131416492,11.093339131416492,40.65344483095315
462,Drinking Water <,Harrellsville  NC,2.2,Drinking Water,36.3026555,-76.7924532,33.83459898334684,18.890429352376245,6.079719954077521,6.079719954077521,61.79141577587042
463,Drinking Water <,HARRELLSVILLE  TOWN OF ,2.2,Drinking Water,36.30308395,-76.79099565,33.965564394235955,18.976408508815457,6.0714742664978845,6.0714742664978845,61.930446729130615
464,UCMR 4,BEAUFORT CO SOUTHSIDE,94.0,Drinking Water,35.3167618,-76.7798172,36.219570707572736,16.858165585851765,6.748830879851399,6.748830879851399,32.70133583211209
465,Drinking Water >,Jamestown,37.0,Drinking Water,37.2116383,-76.7752102,107.29740557672318,92.76212307276036,86.0029503320533,86.0029503320533,135.37812494663166
466,Drinking Water <,PAMLICO COUNTY WATER: MILL POND WELL #1,0.0,Well,35.16287933,-76.76539013,27.028294329828288,7.821759076620581,23.890282201360506,23.890282201360506,15.928182112085207
467,Drinking Water <,Morehead City  NC,0.0,Drinking Water,34.72000146,-76.75801837,9.026688072634556,12.880562543817646,4.62373306428544,4.62373306428544,26.06834549082657
468,Drinking Water <,PLYMOUTH WATER SYSTEM: WELL #1,0.0,Well,35.86725871,-76.73622794,6.717813630598543,1.1413159706512859,3.9640671308985493,3.9640671308985493,47.88813945131274
469,PFASNetwork >,County of CHOWAN : WELL #9 @ VALHALLA,3.1,Well,36.14897744,-76.68929488,17.02733733744672,6.638628174708902,11.454334614841134,11.454334614841134,63.61355306343639
470,Drinking Water <,TOWN OF BELHAVEN WATER SYSTEM: WELL #3,2.0,Well,35.55278088,-76.6297228,20.039173581198614,14.051893220984468,23.715185818028992,23.715185818028992,54.07017253344844
471,Drinking Water <,Chowan County  NC,13.0,Drinking Water,36.1354131,-76.6181655,12.495034050836434,5.648104697284832,6.330785366507617,6.330785366507617,68.12464410127433
472,Drinking Water <,city of edenton nc,1.25,Drinking Water,36.06793866,-76.61295817,5.71943531470033,4.982248773309335,2.5103032807394645,2.5103032807394645,64.976778392082
473,PFASNetwork >,NEUSE REGIONAL WTR & SWR AUTH: NEUSE RIVER,57.0,River,35.21500418,-76.60272911,42.90447250170543,22.862568854920795,24.117617987402912,24.117617987402912,22.39311074881524
474,Drinking Water <,WASHINGTON COUNTY WATER SYSTEM: WELL #1,0.0,Well,35.90563684,-76.49466559,15.401094377609883,15.378745769767605,9.480285465798465,9.480285465798465,70.06118231581613
475,Drinking Water <,Lamplighter South-danby  NC,7.2,Drinking Water,42.3064626,-76.4429947,107.4626365801923,657.2101460803729,151.67004812058167,151.67004812058167,675.2532207296136
476,Drinking Water <,Perquimans County  NC,2.5,Drinking Water,36.1329763,-76.4100267,18.37890926277003,12.792093137967717,0.34936249121840257,0.34936249121840257,84.56024070473428
477,Drinking Water <,TYRRELL COUNTY WATER: RO WELL #4,5.4,Well,35.92505716,-76.35743275,22.406171605568034,27.701313012386276,18.125244744165506,18.125244744165506,82.60045293582094
478,Drinking Water <,PASQUOTANK CO RO WATER SYSTEM: WESLEY 1 WELL,2.1,Well,36.29481378,-76.35208126,16.774739452517302,7.119488864696785,3.9216805282805316,3.9216805282805316,97.76323320206171
479,Military Site,MCOLF Atlantic,70.0,Military Site,34.89298461,-76.34924469,1.4454654665431046,21.91075181106656,12.534540044373212,12.534540044373212,35.40901253312517
480,UCMR 4,PASQUOTANK COUNTY WATER SYSTEM,79.0,Drinking Water,36.2927068,-76.317414,13.705848361053878,6.9913311911669815,2.3614815600395422,2.3614815600395422,100.26823454440458
481,Drinking Water <,PASQUOTANK COUNTY WATER SYSTEM: PASQ CO WELL #2,5.8,Well,36.19908094,-76.31398686,14.583689424277276,4.206257701141787,8.068571340528326,8.068571340528326,95.49719042158836
482,Drinking Water <,HYDE COUNTY WATER SYSTEM: FAIRFIELD WELL #1,4.6,Well,35.5596595,-76.31358903,37.36288899174902,15.390366434472009,34.24984376813976,34.24984376813976,68.54558687795472
483,Drinking Water <,Elizabeth City  NC,6.9,Drinking Water,36.2946008,-76.2510461,8.220947932721575,6.185402628035757,4.136595098959732,4.136595098959732,105.48492405580195
484,Drinking Water <,city of ELIZABETH  nc,60.9,Drinking Water,36.30542087,-76.25103635,8.847004326533881,7.365487192770404,3.507922969911409,3.507922969911409,106.09232682383701
485,PFASNetwork >,COLUMBIA WATER SYSTEM: COLUMBIA WATER WELL #1,0.0,Well,35.92370135,-76.2415916,31.827947266696928,23.20326280857652,22.056522692619918,22.056522692619918,92.84910927754855
486,Drinking Water >,asquotank County Water System,5.8,Drinking Water,36.30165811,-76.23729138,7.605241985566994,6.598608562145576,2.689356311647907,2.689356311647907,106.94482024859371
487,Drinking Water >,Pasquotank County Ro Water System,2.5,Drinking Water,36.30165811,-76.23729138,7.605241985566994,6.598608562145576,2.689356311647907,2.689356311647907,106.94482024859371
488,UCMR 4,ELIZABETH CITY  CITY OF,15.0,Drinking Water,36.3,-76.22,6.3142990733146815,5.853994849598708,2.043159097797877,2.043159097797877,108.19831708495204
489,PFASNetwork >,SOUTH CAMDEN WTR & SWR DISTRCT: WELL #1 DEEP,0.0,Well,36.30641031,-76.21859027,6.7528413775634935,6.51612014443779,1.3201980305657353,1.3201980305657353,108.66087466770557
490,Drinking Water <,town of ELIZABETH CITY,6.9,Drinking Water,36.31017429,-76.21274613,6.768051792088336,6.8382401242113,0.8896234596503971,0.8896234596503971,109.32336358431921
491,Drinking Water <,Hyde County  NC,4.6,Drinking Water,35.3777712,-76.1783739,53.267718786795825,12.202643303668376,41.7499141879383,41.7499141879383,61.168293218225635
492,Drinking Water <,Tyrrell County  NC,8.5,Drinking Water,35.8925537,-76.1783739,38.418194849136626,17.768760949085284,27.884370333500044,27.884370333500044,97.99227403169118
493,PFASNetwork >,CURRITUCK : SOUTHERN OUTER BANKS WTR SYST: WELL #1,1.2,Well,36.4378435,-76.01254688,4.26052267866069,4.6343059700494615,22.50744313803043,22.50744313803043,131.97641861633326
494,UCMR 4,DARE CO-CAPE HATTERAS WATER,79.0,Drinking Water,35.3466072,-75.5101999,16.35354228761899,17.556711562982358,50.08791607468377,50.08791607468377,113.70973348289424
495,Drinking Water >,Northampton--lake Gaston,6.2,Lake,42.3250896,-72.6412013,275.4431276057582,720.0325816151536,124.88219088268836,124.88219088268836,804.4962249733957
496,UCMR 4,CLEVELAND COUNTY WATER,79.0,Drinking Water,40.422369,-3.644582,5871.539522914772,6140.2676109924105,5472.318475508213,5472.318475508213,6267.681917289869
497,Drinking Water >,Weldon,17.0,Drinking Water,52.497863,-0.63268,5562.4700063237715,5952.141615994631,5186.0834988569095,5186.0834988569095,6067.187215069117
